Site name,Continent,Country,Latitude,Longitude,MAR type,Influent type,Climate
Alcala? La Real,Europe,Spain,37.46,-3.92,Infiltration basin,Groundwater,Dry sub-humid
Arve,Europe,Switzerland,46.18,6.15,Bank filtration,River water,Humid
Caiçara,South America,Brasil,-9.07306,-40.23522,Subsurface Dam,River water,Semi-arid
City of Pasadena,North America,USA,34.154787,-118.134041,Aquifer storage and recovery,River water,Semi-arid
Bergsjo?n,Europe,Sweden,59.309,14.109,Infiltration basin,Lake water,Humid
El Bustan Extension Area,Africa,Egypt,30.38331,30.404489,Infiltration basin,River water,Arid
Upland Basin,North America,USA,34.097915,-117.694958,Infiltration basin,Storm water,Semi-arid
"First National Bank, 400 S.W. 6th Ave. Branch, Portland3- 4N 4,15",North America,USA,45.520505,-122.6777,Aquifer storage and recovery,Groundwater,Humid
Northern Cape,Africa,South Africa,-29.5,22,Aquifer storage using wells,River water,Semi-arid
Shiren River,Asia,China,36.11972,120.546267,Subsurface Dam,River water,Dry sub-humid
Tihar Jail,Asia,India,28.617181,77.102104,Rooftop Rainwater Harvesting,Storm water,Humid
Northwest Hillsborough County Reclaimed Water ASR Project,North America,USA,28.059608,-82.413342,Aquifer storage and recovery,Reclaimed wastewater,Humid
Sítio Serra de Campos Novos,South America,Brasil,-8.936914,-46.1898,Subsurface Dam,River water,Humid
Plettenberg Bay,Africa,South Africa,-34.060875,23.350715,Aquifer storage using wells,River water,Semi-arid
Kladow,Europe,Germany,52.45,13.143,Bank filtration,River water,Humid
Valle de las Palmas,North America,Mexico,32.375639,-116.622267,Infiltration basin,Reclaimed wastewater,Semi-arid
Opperduit,Europe,Netherlands,51.899,4.716,Infiltration basin,River water,Humid
Santa Rosa ASR,North America,USA,38.447247,-122.7123,Aquifer storage and recovery,River water,Humid
Hartfield Park,Oceania,Australia,-31.99489,115.997794,Aquifer storage and recovery,Storm water,Dry sub-humid
Rokugo basin 4,Asia,Japan,39.424167,140.568056,Infiltration basin,River water,Humid
Nainital Lake,Asia,India,29.389253,79.456136,Bank filtration,Lake water,Humid
Barragem do Mundaú,South America,Brasil,-8.9465,-36.4918,Bank filtration,Lake water,Humid
Yamagata-shi,Asia,Japan,38.243889,140.360278,Infiltration basin,River water,Humid
Gatton Weir  (Lockyer Valley),Oceania,Australia,-27.560482,152.256897,Check dam,River water,Humid
Auf dem Grind,Europe,Germany,51.55,6.69,Bank filtration,River water,Humid
Ladd Building Co.,North America,USA,45.52921,-122.664035,Aquifer storage and recovery,Groundwater,Humid
EMBRAPA – Campo experimental da Caatinga BS-3,South America,Brasil,-9.067192,-40.327736,Subsurface Dam,River water,Semi-arid
Mini-Anaheim Lake,North America,USA,33.866518,-117.843679,Infiltration basin,River water,Semi-arid
Evanston South,Oceania,Australia,-34.633665,138.715042,Aquifer storage and recovery,Storm water,Semi-arid
Pendleton ASR,North America,USA,45.666479,-118.75714,Aquifer storage and recovery,River water,Semi-arid
Huangtu Gaoyuan,Asia,China,36.999577,107.999626,Infiltration basin,River water,Semi-arid
Whittier Narrows Water Reclamation Plant,North America,USA,34.032992,-118.068758,Infiltration basin,Reclaimed wastewater,Semi-arid
Delhi Gymkhana Club,Asia,India,28.597954,77.204894,Rooftop Rainwater Harvesting,Storm water,Humid
Dagu River,Asia,China,37.045044,120.448002,Check dam,River water,Dry sub-humid
Poverty Bay MAR Pilot Project,Oceania,New Zealand,-38.61037,177.9196,Aquifer storage and recovery,River water,Humid
Fazenda Várzea Queimada,South America,Brasil,-10.47258,-40.08251,Subsurface Dam,River water,Dry sub-humid
N/A,Asia,China,37.585192,105.124609,Subsurface Dam,River water,Semi-arid
Jandakot,Oceania,Australia,-32.1038159,115.8747833,Aquifer storage and recovery,River water,Dry sub-humid
Go?ttwitz,Europe,Germany,51.254,12.918,Bank filtration,Lake water,Humid
Ossendrecht,Europe,Netherlands,51.395,4.333,Aquifer storage and recovery,Groundwater,Humid
College Heights Basins,North America,USA,34.10363,-117.696148,Infiltration basin,Storm water,Semi-arid
Ana Catchment 2,Africa,Kenia,-1.37143,37.98888,Subsurface Dam,River water,Semi-arid
Schierstein,Europe,Germany,50.04,8.19,Aquifer storage and recovery,River water,Humid
Rheintal Grundwasserstrom,Europe,Switzerland,47.5303,7.691765,Infiltration basin,River water,Humid
Bear Canyon Recharge Demonstration Project,North America,USA,35.138383,-106.557539,Check dam,River water,Semi-arid
Horton Kirby,Europe,United Kingdom,51.39471,0.243673,Aquifer storage and recovery,Storm water,Humid
Yavne-1,Asia,Israel,31.893417,34.723755,Infiltration basin,Reclaimed wastewater,Semi-arid
Yufuhe,Asia,China,36.645926,116.862777,Check dam,River water,Dry sub-humid
Guntersblum,Europe,Germany,49.795,8.355,Bank filtration,River water,Humid
Campo de pozos de La Bomba de Limón,South America,Costa Rica,9.135663889,-83.06382778,Bank filtration,River water,Humid
San Gabriel Canyon Spreading Grounds,North America,USA,34.15109,-117.914103,Infiltration basin,Lake water,Semi-arid
Sítio Serrota,South America,Brasil,-6.260875,-37.81138,Subsurface Dam,River water,Dry sub-humid
Asian Institute of Technology (AIT),Asia,Thailand,14.081453,100.601654,Aquifer storage using wells,Lake water,Humid
Friendship Farm,Asia,China,46.78169,131.810963,Aquifer storage and recovery,Storm water,Dry sub-humid
Elst,Europe,Netherlands,51.92437,5.8461,Bank filtration,River water,Humid
WW Dollar + WW Hardt,Europe,France,47.749,7.334,Check dam,River water,Humid
Hameerpur (Jabar Sagar),Asia,India,27.21825,76.195665,Check dam,River water,Humid
Gordon Road WWTP,Oceania,Australia,-32.5078564,115.7531894,Infiltration basin,Reclaimed wastewater,Dry sub-humid
Assentamento Santo Agostinho,South America,Brasil,-5.41557,-37.3746,Subsurface Dam,River water,Dry sub-humid
Valley Boulevard Rubber Dam,North America,USA,34.049977,-118.009124,Infiltration basin,Lake water,Semi-arid
Grantham Weir  (Lockyer Valley),Oceania,Australia,-27.575796,152.216674,Check dam,River water,Humid
Tiendweg,Europe,Netherlands,51.902,4.684,Bank filtration,River water,Humid
Heihe River,Asia,China,35.213283,107.349539,Check dam,River water,Dry sub-humid
"Da Yao Cun, Guangrao Xian",Asia,China,37.108194,118.366194,Aquifer storage using wells,River water,Dry sub-humid
Stiepel,Europe,Germany,51.41,7.24,Bank filtration,River water,Humid
Perth Groundwater Replenishment Scheme Stage 1,Oceania,Australia,-31.782679,115.776711,Aquifer storage and recovery,Reclaimed wastewater,Dry sub-humid
New Friends Club,Asia,India,28.562541,77.266554,Rooftop Rainwater Harvesting,Storm water,Humid
Royal Bhutanese Embassy,Asia,India,28.586543,77.180794,Rooftop Rainwater Harvesting,Storm water,Humid
Mogarala area,Asia,India,13.481932,79.043898,Check dam,River water,Semi-arid
Caborca,North America,Mexico,30.704088,-112.140627,Aquifer storage using wells,River water,Semi-arid
Fazenda Mandassaia,South America,Brasil,-8.65,-41.16667,Subsurface Dam,River water,Semi-arid
Boynton Beach,North America,USA,26.51377,-80.062819,Aquifer storage and recovery,Reclaimed wastewater,Humid
"Xi'an, Yanta",Asia,China,34.226908,108.984018,Aquifer storage using wells,River water,Humid
"RRS, Sirsa",Asia,India,29.533176,75.017002,Aquifer storage and recovery,Storm water,Dry sub-humid
Sawpit Spreading Grounds,North America,USA,34.160229,-117.990874,Infiltration basin,Lake water,Semi-arid
Shanghai,Asia,China,31.187937,121.452034,Aquifer storage using wells,Reclaimed wastewater,Humid
Brousse-le-Château,Europe,France,43.99756015,2.625504942,Infiltration basin,River water,Humid
Microbacia do Córrego Fundo,South America,Brasil,-7.476338,-47.84705,Subsurface Dam,River water,Humid
Vessy,Europe,Switzerland,46.187,6.166,Reverse Drainage,River water,Humid
Lagoa do CTG,South America,Brasil,-5.87475,-35.1882,Infiltration basin,Storm water,Dry sub-humid
N/A,Asia,China,34.275475,108.815648,Aquifer storage and recovery,River water,Dry sub-humid
Nootdorp,Europe,Netherlands,52.043,4.396,Aquifer storage and recovery,Storm water,Humid
EPAGRI – Estação Experimental,South America,Brasil,-27.42058,-49.648521,Bank filtration,Lake water,Humid
N. Lekkerland,Europe,Netherlands,51.97304,5.18486,Bank filtration,River water,Humid
Lodhi Garden,Asia,India,28.592926,77.219645,Aquifer storage using wells,River water,Humid
San Gabriel River (Montebello Forebay),North America,USA,33.989036,-118.075617,Infiltration basin,Lake water,Semi-arid
"Shunping, Baoding, Hebei",Asia,China,38.895246,115.259762,Surface flooding and ditch-and-furrow,Lake water,Semi-arid
Tumbleweed Park Recharge Facility,North America,USA,33.272986,-111.828048,Aquifer storage and recovery,Reclaimed wastewater,Semi-arid
Schuwacht,Europe,Netherlands,51.896,4.642,Bank filtration,River water,Humid
"Shenbei, Shenyang",Asia,China,42.154363,123.414125,Surface flooding and ditch-and-furrow,River water,Dry sub-humid
Santa Anita Spreading Grounds,North America,USA,34.166973,-118.021551,Infiltration basin,Lake water,Semi-arid
Carracillo,Europe,Spain,41.31,-4.36,Surface flooding and ditch-and-furrow,River water,Humid
Malham,Asia,Saudi Arabia,25.143502,46.240481,Check dam,River water,Semi-arid
Toms River Water Co.,North America,USA,39.988363,-74.186073,Aquifer storage and recovery,Groundwater,Humid
WW Halingen-Fröndenberg,Europe,Germany,51.468,7.72,Bank filtration,River water,Humid
Windhoek,Africa,Namibia,-22.561459,17.07356,Aquifer storage using wells,Lake water,Semi-arid
Monto Weir (Three Moon Creek),Oceania,Australia,-24.858364,151.10663,Check dam,River water,Dry sub-humid
Funxi,Asia,China,34.212734,108.73481,Check dam,River water,Dry sub-humid
Ely Basins,North America,USA,34.034876,-117.613444,Infiltration basin,Reclaimed wastewater,Semi-arid
Lujiazui,Asia,China,31.224325,121.508677,Aquifer storage using wells,Lake water,Humid
Ujecie wody Mostowo,Europe,Poland,54.076,16.39,Bank filtration,River water,Humid
Rhein,Europe,Germany,51.444839,6.716645,Bank filtration,River water,Humid
Grisolles,Europe,France,43.82889,1.296667,Infiltration basin,River water,Humid
Warner Basin,North America,USA,33.854048,-117.831646,Infiltration basin,River water,Semi-arid
Middelweg,Europe,Netherlands,51.885,4.663,Bank filtration,River water,Humid
Comunidade Riacho Verde (Owner: Sebastião M. de Lima),South America,Brasil,-7.1541,-37.1334,Subsurface Dam,River water,Dry sub-humid
Cornedo Vicentino A,Europe,Italy,45.615,11.337,Aquifer storage using wells,River water,Humid
Max Amber Sportsfield/Torrens Valley Sportsfield,Oceania,Australia,-34.869602,138.693423,Aquifer storage and recovery,River water,Semi-arid
Bau Noi/Hong Phong,Asia,Vietnam,11.051604,108.312653,Bank filtration,Lake water,Humid
Kaliningrad,Europe,Russian Federation,54.711,20.506,Bank filtration,River water,Humid
Rusovce,Europe,Slovakia,48.06225,17.14485,Bank filtration,River water,Humid
Ma Ma Creek Weir  (Lockyer Valley),Oceania,Australia,-27.656814,152.161344,Check dam,River water,Humid
Gouda,Europe,Netherlands,52.01616,4.710388,Infiltration basin,River water,Humid
N/A,Asia,China,38.476994,102.286657,Subsurface Dam,River water,Semi-arid
Spandau,Europe,Germany,52.58,13.17,Bank filtration,River water,Humid
Dong Zhu Ying Cun Guangrao Xian,Asia,China,37.039041,118.479667,Aquifer storage and recovery,Groundwater,Dry sub-humid
Chesapeake,North America,USA,36.738493,-76.291915,Aquifer storage and recovery,River water,Humid
Khlidia,Africa,Tunesia,36.623334,10.201305,Infiltration basin,River water,Dry sub-humid
Bhaonta (Sankara),Asia,India,27.328641,76.224669,Check dam,River water,Humid
Fazenda Catolé de Queimadas - Dona Dora,South America,Brasil,-7.34714,-35.887999,Subsurface Dam,River water,Semi-arid
Assentamento Pedro Henrique - BS-3 (Owner: Fancisco Belchior dos Santos),South America,Brasil,-6.78083,-35.75722,Subsurface Dam,River water,Dry sub-humid
Zhabei Qu,Asia,China,31.241862,121.458563,Aquifer storage and recovery,Groundwater,Humid
Hassayampa Recharge Facility,North America,USA,33.935532,-112.698988,Channel infiltration/spreading,River water,Semi-arid
Fazenda Queimada dos Loiolas,South America,Brasil,-24.0447091,-48.916656,Subsurface Dam,River water,Humid
Santiago Basins,North America,USA,33.806726,-117.806409,Infiltration basin,River water,Semi-arid
"Anxin, Baoding",Asia,China,38.960491,116.033721,Surface flooding and ditch-and-furrow,Storm water,Semi-arid
Kentville Weir  (Lockyer Valley),Oceania,Australia,-27.492619,152.437705,Check dam,River water,Humid
Kuivala,Europe,Finland,60.88,26.92,Infiltration basin,River water,Humid
Crezeepolder,Europe,Netherlands,51.86178,4.641638,Bank filtration,Lake water,Humid
South of Lyon,Europe,France,45.7684,4.8356,Bank filtration,River water,Humid
Pine Flat,North America,USA,42.236392,-121.564956,Aquifer storage using wells,Storm water,Dry sub-humid
Gracia-Morenita,Europe,Spain,42.46,-8.09,Aquifer storage and recovery,Groundwater,Humid
Área do Instituto de Pesquisas Hidráulicas - UFRGS - Trincheira 1,South America,Brasil,-30.076102,-51.114595,Trenches,Storm water,Humid
Mira Model School,Asia,India,28.630862,77.093942,Rooftop Rainwater Harvesting,Storm water,Humid
"Xiongxian, Baoding",Asia,China,36.630317,117.02111,Surface flooding and ditch-and-furrow,River water,Dry sub-humid
Sanjianpu,Asia,China,38.903652,121.286811,Subsurface Dam,River water,Dry sub-humid
Pursiala,Europe,Finland,61.670787,27.284098,Excess Irrigation,Lake water,Humid
Katrineholm,Europe,Sweden,58.995,16.205,Infiltration basin,Lake water,Humid
Little Para Dam,Oceania,Australia,-34.7537319,138.7206319,Check dam,River water,Semi-arid
Northwest University,Asia,China,34.148276,108.87438,Aquifer storage and recovery,River water,Humid
"Xinshi, Baoding",Asia,China,38.94355,115.373177,Surface flooding and ditch-and-furrow,River water,Semi-arid
Munno Para West,Oceania,Australia,-34.66836,138.674906,Aquifer storage and recovery,Storm water,Semi-arid
Madonetta E,Europe,Italy,45.698,11.523,Aquifer storage using wells,River water,Humid
Ho?ttinger Au,Europe,Austria,47.269,11.404,Bank filtration,River water,Humid
Buell-Red Prairie AR,North America,USA,45.001552,-123.5132,Aquifer storage using wells,River water,Humid
7th and 8th Street Basins,North America,USA,34.089705,-117.632777,Infiltration basin,Reclaimed wastewater,Semi-arid
Ssangcheon,Asia,Korea,36.638522,127.346757,Subsurface Dam,Groundwater,Humid
San Gorgonio Pass basins,North America,USA,33.978323,-116.972362,Infiltration basin,River water,Semi-arid
Tegel,Europe,Germany,52.58,13.27,Bank filtration,Lake water,Humid
Eaton Wash Spreading Grounds,North America,USA,34.162916,-118.089032,Infiltration basin,Lake water,Semi-arid
La Ligua,South America,Chile,-32.4499018,-71.2325958,Infiltration basin,River water,Semi-arid
Peumo Valley,South America,Chile,-34.05,-71.3,Channel infiltration/spreading,Storm water,Semi-arid
N/A,Asia,China,37.909021,102.647167,Subsurface Dam,River water,Semi-arid
Engelsche Werk,Europe,Netherlands,52.499,6.072,Bank filtration,River water,Humid
Superstition Mountains Recharge Project (SMRP),North America,USA,33.226945,-111.500925,Infiltration basin,River water,Semi-arid
3 Ba Li Zhuang Lu Chaoyang Qu,Asia,China,39.913323,116.494904,Aquifer storage using wells,River water,Semi-arid
Hancheon,Asia,Korea,33.444757,126.524602,Infiltration basin,River water,Humid
Vierakker,Europe,Netherlands,52.107,6.235,Bank filtration,River water,Humid
Druten,Europe,Netherlands,51.872,5.608,Bank filtration,River water,Humid
Irrigation Science and Technology,Asia,China,39.076649,117.213038,Rooftop Rainwater Harvesting,Storm water,Semi-arid
Kano River irrigation Project (KRIP),Africa,Nigeria,12.00012,8.51672,Excess Irrigation,River water,Humid
Punta Gorda ASR,North America,USA,26.973355,-81.935457,Aquifer storage and recovery,River water,Humid
Lopez Spreading Grounds,North America,USA,34.298245,-118.414121,Infiltration basin,Lake water,Semi-arid
Tanuf,Asia,Oman,23.058707,57.469183,Check dam,River water,Arid
De Laak,Europe,Netherlands,51.957,5.036,Bank filtration,River water,Humid
Enschede,Europe,Netherlands,52.22696,6.886368,Infiltration basin,River water,Humid
Callide Dam (Callide Valley),Oceania,Australia,-24.366833,150.613771,Channel infiltration/spreading,River water,Semi-arid
Westhofen2,Europe,Germany,51.4157,7.5182,Infiltration basin,River water,Humid
Jhiri (Amli),Asia,India,27.255127,76.219031,Check dam,River water,Humid
Williston,Africa,South Africa,-31.624083,21.216791,Aquifer storage and recovery,Groundwater,Semi-arid
Appoigny,Europe,France,47.87689825,3.527624844,Infiltration basin,River water,Humid
Flammerans,Europe,France,47.2303313,5.447404674,Infiltration basin,River water,Humid
Llohué,South America,Chile,-36.30344636,-72.46431222,Trenches,Storm water,Humid
Granite Reef Underground Storage Project (GRUSP),North America,USA,33.491674,-111.777168,Infiltration basin,River water,Semi-arid
Hengsen,Europe,Germany,51.458,7.63,Infiltration basin,River water,Humid
"Tacoma Public Utilities Building – 13A1, B1",North America,USA,47.227693,-122.485958,Aquifer storage and recovery,Groundwater,Humid
Torgau-Ost,Europe,Germany,51.554,13,Bank filtration,River water,Humid
Beelitzhof,Europe,Germany,52.43,13.18,Bank filtration,River water,Humid
La Mitidja Big Bag,Africa,Algeria,36.538316,3.061936,no data,River water,Dry sub-humid
Fakhrabad,Asia,Iran,31.635948,54.345453,Check dam,River water,Semi-arid
"West Coast Telephone Co. building – 31A1,A2",North America,USA,47.961856,-122.221574,Aquifer storage and recovery,Groundwater,Humid
City of Lincoln – collector wells,North America,USA,41.056019,-96.321379,Bank filtration,River water,Semi-arid
Shifosi,Asia,China,42.147266,123.343543,Infiltration basin,Storm water,Dry sub-humid
Bremerberg dijk,Europe,Netherlands,52.442,5.777,Bank filtration,Lake water,Humid
"Jinshui, Zhengzhou",Asia,China,34.82362,113.705344,Infiltration basin,River water,Dry sub-humid
Derby,Europe,United Kingdom,53.19287,-1.678162,Bank filtration,River water,Humid
Springfield,North America,USA,44.024614,-123.02081,Aquifer storage and recovery,River water,Humid
Nong Taphan,Asia,Thailand,12.753379,101.258063,Aquifer storage and recovery,River water,Humid
Monteccio Precalcino,Europe,Italy,45.698,11.523,Aquifer storage using wells,River water,Humid
City of Walla Walla,North America,USA,46.061742,-118.346772,Aquifer storage and recovery,River water,Semi-arid
Branford Spreading Basin,North America,USA,34.230428,-118.415493,Infiltration basin,Storm water,Semi-arid
IEUA RP3 Ponds,North America,USA,34.044332,-117.475568,Infiltration basin,Reclaimed wastewater,Semi-arid
Doesburg,Europe,Netherlands,52.01511,6.134491,Bank filtration,River water,Humid
Uppsala,Europe,Sweden,59.437,15.974,Infiltration basin,Lake water,Humid
Bacia 1: Rod. Geraldo Silva Nascimento – Instituto Federal Goiano,South America,Brasil,-17.495,-48.2269,Infiltration basin,Storm water,Humid
Satsuma,Oceania,Australia,-34.781838,138.717997,Aquifer storage and recovery,Storm water,Semi-arid
Shougang,Asia,China,40.02154,116.264289,Aquifer storage using wells,River water,Semi-arid
Unity Park/Pooraka,Oceania,Australia,-34.87985,138.66977,Aquifer storage and recovery,Storm water,Semi-arid
Madison Farms,North America,USA,45.712723,-119.359432,Aquifer storage and recovery,Groundwater,Semi-arid
Nakajima,Asia,Japan,33.973943,132.616781,Subsurface Dam,Groundwater,Humid
City of Dallas,North America,USA,44.919471,-123.338634,Aquifer storage and recovery,River water,Humid
Wanglanzhuang,Asia,China,39.053573,117.191555,Aquifer storage and recovery,Groundwater,Semi-arid
Sedgwick Recharge System,North America,USA,37.883601,-97.481024,Infiltration basin,River water,Semi-arid
Duck Lake recharge,North America,USA,48.454911,-119.538675,Excess Irrigation,River water,Dry sub-humid
Kalinkovo,Europe,Slovakia,48.0611,17.25248,Bank filtration,River water,Humid
Live Oak Spreading Grounds,North America,USA,34.121945,-117.745374,Infiltration basin,Lake water,Semi-arid
Torreele/St-Andre ?,Europe,Belgium,50.69744,5.753059,Infiltration basin,Reclaimed wastewater,Humid
"Tacoma Savings & Loan Association Building – 4D1,2",North America,USA,47.237521,-122.432237,Aquifer storage and recovery,Groundwater,Humid
Les Ansereuilles,Europe,France,50.557343,2.94616,Bank filtration,River water,Humid
Richland recharge basins,North America,USA,46.255101,-119.264761,Infiltration basin,River water,Dry sub-humid
Sítio Fazenda Lagoa Comprida,South America,Brasil,-7.9,-40.25,Subsurface Dam,River water,Semi-arid
Fazenda Nossa Senhora do Rosário,South America,Brasil,-8.403055,-37.815,Excess Irrigation,Groundwater,Semi-arid
Briesen/Spree,Europe,Germany,53.305,14.219,Bank filtration,River water,Humid
Taihe Reservoir,Asia,China,36.519783,118.125446,Check dam,River water,Dry sub-humid
Saloppe,Europe,Germany,51.065,13.791,Excess Irrigation,Lake water,Humid
San Dimas Canyon Spreading Grounds,North America,USA,34.129229,-117.787097,Infiltration basin,Lake water,Semi-arid
Sítio Fazenda Pitombeira,South America,Brasil,-7.57382,-40.25341,Subsurface Dam,River water,Semi-arid
El Sen?ori?o,Europe,Spain,39.49,-4.96,Aquifer storage and recovery,Storm water,Dry sub-humid
Mondragon,Europe,France,44.23826135,4.713302401,Aquifer storage using wells,River water,Humid
San Carlos Estates ASR System,North America,USA,26.389166,-81.7736111,Aquifer storage and recovery,Reclaimed wastewater,Humid
Hidango,South America,Chile,-34.10332595,-71.83023593,Trenches,Storm water,Semi-arid
Weinhu?bel,Europe,Germany,51.156,14.986,Bank filtration,River water,Humid
Flins,Europe,France,48.98248,1.860166,Bank filtration,River water,Humid
Kabudrahang,Asia,Iran,35.207186,48.724458,Check dam,River water,Semi-arid
Padipatlabayalu area,Asia,India,13.519922,79.020965,Check dam,River water,Semi-arid
Sítio Várzea Comprida,South America,Brasil,-24.047689,-48.870614,Subsurface Dam,River water,Humid
Halls Head,Oceania,Australia,-32.540789,115.690477,Infiltration basin,Reclaimed wastewater,Dry sub-humid
BS-4,South America,Brasil,-6.068088,-37.32788,Subsurface Dam,Storm water,Dry sub-humid
Hardhof,Europe,Switzerland,47.401,8.48,Bank filtration,River water,Humid
Birstal,Europe,Switzerland,47.493,7.591,Aquifer storage and recovery,Groundwater,Humid
Biarjomand recharge project,Asia,Iran,36.076362,55.641625,Check dam,River water,Semi-arid
Witten,Europe,Germany,51.50182,7.893202,Infiltration basin,River water,Humid
Hyndevad,Europe,Sweden,59.323,16.45,Infiltration basin,Lake water,Humid
Belgrade,Europe,Serbia and Montenegro,44.84321,20.45654,Bank filtration,River water,Humid
Airport Shanghai,Asia,China,31.154511,121.804596,Rooftop Rainwater Harvesting,Storm water,Humid
Yavne-3,Asia,Israel,31.853911,34.713885,Infiltration basin,Reclaimed wastewater,Semi-arid
Farm,Asia,China,47.588685,133.51825,Infiltration basin,Storm water,Dry sub-humid
Muttenzer Hard,Europe,Switzerland,47.532,7.7,Surface flooding and ditch-and-furrow,River water,Humid
Paradise Run ASR System,North America,USA,27.21813,-80.960666,Aquifer storage and recovery,River water,Humid
Petersaue + WW Eich,Europe,Germany,50.01,8.264,Bank filtration,River water,Humid
Mosina-Krajkowo,Europe,Poland,52.21203,16.94246,Bank filtration,River water,Humid
Luohe ASR,Asia,China,34.669067,112.479196,Check dam,River water,Dry sub-humid
Delray Beach,North America,USA,26.466666,-80.1,Aquifer storage and recovery,Reclaimed wastewater,Humid
Ordos Plateau,Asia,China,40.073906,109.80943,Infiltration basin,River water,Semi-arid
Barragem subterrânea do Rio Palhano,South America,Brasil,-4.91667,-38.5167,Subsurface Dam,River water,Humid
Lohiluoma,Europe,Finland,62.54552,22.29675,Bank filtration,River water,Humid
Schaffhausen,Europe,Switzerland,47.693,8.63,Bank filtration,River water,Humid
Talbert Gap Seawater Barrier,North America,USA,33.693905,-117.967179,Aquifer storage using wells,Reclaimed wastewater,Semi-arid
N/A,Asia,China,40.073906,109.80943,Aquifer storage using wells,River water,Semi-arid
Sint Jansklooster,Europe,Netherlands,52.68,6.009,Bank filtration,Lake water,Humid
river Guadalquivir floodplain,Europe,Spain,37.04,-6.18,Surface flooding and ditch-and-furrow,River water,Dry sub-humid
Camarillo,North America,USA,34.216016,-119.029333,Aquifer storage and recovery,River water,Semi-arid
Forssa,Europe,Finland,60.81368,23.62099,Bank filtration,Lake water,Humid
Conceição (Barragem Comunitária Manoel Cândido Sobrinho),South America,Brasil,-6.81102,-49.270978,Subsurface Dam,Storm water,Humid
Kikai,Asia,Japan,28.321593,129.970904,Subsurface Dam,Groundwater,Humid
Beenyup/Craigie Groundwater Replenishment Trial,Oceania,Australia,-31.7772582,115.7780548,Aquifer storage and recovery,Reclaimed wastewater,Dry sub-humid
Lower Santa Cruz River Managed Recharge Project – LSCRMRP,North America,USA,32.418597,-111.206253,Infiltration basin,River water,Dry sub-humid
Kale Khosk,Asia,Iran,36.928119,55.490798,Surface flooding and ditch-and-furrow,Storm water,Semi-arid
Tummalur Chevaru,Asia,India,17.15206,78.45741,Check dam,River water,Dry sub-humid
Nizamuddin East Colony,Asia,India,28.589929,77.250827,Rooftop Rainwater Harvesting,Storm water,Humid
Kiindu Dam 4,Africa,Kenia,-1.45665,38.00079,Subsurface Dam,River water,Semi-arid
Cre?pieux-Charmy,Europe,France,45.797,4.905,Bank filtration,River water,Humid
Miller Basin,North America,USA,33.864805,-117.856058,Infiltration basin,River water,Semi-arid
Eaton Spreading Basin,North America,USA,34.123581,-118.081439,Infiltration basin,River water,Semi-arid
Fazenda Queimadas,South America,Brasil,-7.347735,-35.872607,Subsurface Dam,River water,Semi-arid
Fazenda Rosário,South America,Brasil,-10.11667,-39.0667,Subsurface Dam,River water,Dry sub-humid
Mesa Northwest Water Reclamation Plant (NWWRP),North America,USA,33.42888,-111.678445,Infiltration basin,Reclaimed wastewater,Semi-arid
Someren DIZON,Europe,Netherlands,51.385,5.712,Aquifer storage and recovery,River water,Humid
Praski 'Gruba Kaska',Europe,Poland,52.2238,21.0623,Bank filtration,River water,Humid
Tennet Pond Well field,North America,USA,40.425598,-74.335355,Infiltration basin,River water,Humid
Morroa,South America,Colombia,9.332193,-75.307733,Aquifer storage using wells,Storm water,Humid
De Steeg,Europe,Netherlands,51.932,4.878,Bank filtration,River water,Humid
Siebeneichen,Europe,Germany,51.149,13.485,Bank filtration,River water,Humid
Kingswood Golf Club,Oceania,Australia,-37.9834735,145.118597,Aquifer storage and recovery,Storm water,Humid
Jinan,Asia,China,36.611064,116.962778,Rooftop Rainwater Harvesting,Storm water,Dry sub-humid
Tolkewitz,Europe,Germany,51.034,13.824,Bank filtration,River water,Humid
Dagu River,Asia,China,39.829667,116.248785,Surface flooding and ditch-and-furrow,River water,Semi-arid
Arapuá,South America,Brasil,-6.34196,-37.21473,Subsurface Dam,Storm water,Dry sub-humid
University of Jinan,Asia,China,36.616178,116.965843,Rooftop Rainwater Harvesting,Storm water,Dry sub-humid
Indira Gandhi International Airport,Asia,India,28.558582,77.087112,Trenches,Storm water,Humid
José Brasilino Coelho,South America,Brasil,-11.46667,-40.7,Subsurface Dam,River water,Dry sub-humid
Balsamand Regional Research Station,Asia,India,29.070696,75.490966,Aquifer storage and recovery,River water,Semi-arid
BS-3,South America,Brasil,-7.068088,-38.32788,Subsurface Dam,Storm water,Dry sub-humid
Hochkirchen,Europe,Germany,51.424,7.04,Bank filtration,River water,Humid
Solandra,Oceania,Australia,-34.82274,138.686308,Aquifer storage and recovery,Storm water,Semi-arid
Morroa,South America,Colombia,9.332193,-75.307733,Check dam,Storm water,Humid
Ford Foundation,Asia,India,28.592755,77.22261,Rooftop Rainwater Harvesting,Storm water,Humid
Ferraro Quarry,Europe,Italy,45.67428,11.51734,Infiltration basin,River water,Humid
Kiindu Dam 5,Africa,Kenia,-1.45557,38.00053,Subsurface Dam,River water,Semi-arid
Va?sterbotten,Europe,Sweden,65.333,16.516,Infiltration basin,Lake water,Humid
Las Vegas Valley well field,North America,USA,36.078198,-115.252769,Aquifer storage and recovery,Lake water,Semi-arid
"Guangrao, Dongying",Asia,China,37.086911,118.484859,Surface flooding and ditch-and-furrow,River water,Dry sub-humid
Shenbagathope,Asia,India,12.631261,79.056774,Subsurface Dam,Groundwater,Dry sub-humid
Central Avra Valley Storage and Recovery Project (CAVSARP),North America,USA,32.238059,-111.238615,Infiltration basin,River water,Dry sub-humid
Udagamandalam (früher: Ootacamund),Asia,India,11.410759,76.699497,Subsurface Dam,Groundwater,Dry sub-humid
Mulgowie Weir  (Lockyer Valley),Oceania,Australia,-27.753397,152.3724,Check dam,River water,Humid
Jungfernheide,Europe,Germany,52.53,13.25,Infiltration basin,River water,Humid
Cochrane Park Rehabilitation Project,North America,USA,46.937199,-122.610175,Infiltration basin,Reclaimed wastewater,Humid
Esztergom,Europe,Hungary,52.22696,6.893921,Bank filtration,River water,Humid
Daryan Chai,Asia,Iran,38.191138,45.604982,Check dam,River water,Semi-arid
Marco Lakes – Expanded – ASR 2,North America,USA,26.065555,-81.69333333,Aquifer storage and recovery,Lake water,Humid
El Paso Water Utilities 2 (EPWU),North America,USA,31.940272,-106.364521,Aquifer storage and recovery,Reclaimed wastewater,Semi-arid
Walnut Spreading Basin,North America,USA,34.074118,-117.874651,Infiltration basin,Lake water,Semi-arid
Ringdijk,Europe,Netherlands,51.82,4.659,Bank filtration,River water,Humid
"Jinxiang, Jining",Asia,China,34.939029,116.241001,Surface flooding and ditch-and-furrow,River water,Dry sub-humid
Queen Elizabeth Olympic Park,Asia,China,51.543198,-0.012311,Rooftop Rainwater Harvesting,Storm water,Humid
BS-1,South America,Brasil,-9.068,-40.328,Subsurface Dam,Storm water,Semi-arid
Guadix,Europe,Spain,37.3,-3.14,Infiltration basin,Groundwater,Dry sub-humid
Indian Spinal Injuries Centre,Asia,India,28.532686,77.141672,Rooftop Rainwater Harvesting,Storm water,Humid
Yavne-4,Asia,Israel,31.84786,34.70719,Infiltration basin,Reclaimed wastewater,Semi-arid
Jokioinen,Europe,Finland,60.8,23.5,Bank filtration,Lake water,Humid
Fazenda Folha Verde,South America,Brasil,-10.76667,-40.05,Subsurface Dam,River water,Dry sub-humid
Baerl,Europe,Germany,51.486,6.667,Bank filtration,River water,Humid
"Columbia River High School – 10H1,2",North America,USA,45.693975,-122.677893,Aquifer storage and recovery,Groundwater,Humid
Kumbhej,Asia,India,18.311588,75.174658,Check dam,River water,Humid
Valle de Toluca,North America,Mexico,19.2826098,-99.6556653,Aquifer storage using wells,Reclaimed wastewater,Dry sub-humid
Sítio Almeida,South America,Brasil,-7.13384,-35.90199,Subsurface Dam,River water,Dry sub-humid
Ban Nong Na (Nong Kula) 1,Asia,Thailand,16.646433,99.999297,Infiltration basin,River water,Humid
Kolff,Europe,Netherlands,51.829,5.249,Bank filtration,River water,Humid
"Sindos, Giannitsa Plain",Europe,Greece,40.67,22.8,Aquifer storage and recovery,Reclaimed wastewater,Semi-arid
Clarendon Dam (Lockyer Valley),Oceania,Australia,-27.4975507,152.3359946,Check dam,River water,Humid
Cubeta de Santiuste de San Juan Bautista,Europe,Spain,41.08,-4.57,Infiltration basin,River water,Humid
Solleveld,Europe,Netherlands,52.052,4.854,Infiltration basin,River water,Humid
Aguascalientes,North America,Mexico,21.890999,-102.293428,Aquifer storage using wells,Reclaimed wastewater,Semi-arid
Dordrecht,Europe,Netherlands,51.8188,4.665756,Bank filtration,River water,Humid
Nitata (Bhoja Kala),Asia,India,27.140253,76.201294,Check dam,River water,Humid
Salem,North America,USA,44.888739,-123.037606,Aquifer storage and recovery,River water,Humid
Hillsboro ASR System (HASR),North America,USA,26.355307,-80.295232,Aquifer storage and recovery,River water,Humid
Valle de Santiago/ Río del Maipo,South America,Chile,-33.45,-70.666667,Infiltration basin,River water,Semi-arid
Universidade Federal de São Carlos (UFSCar),South America,Brasil,-21.978339,-47.8805,Trenches,Storm water,Humid
Lake Duthernal,North America,USA,40.40359,-74.370753,Check dam,River water,Humid
EMBRAPA – Campo experimental da Caatinga BS-2,South America,Brasil,-9.068088,-40.32788,Subsurface Dam,River water,Semi-arid
Wanglong Farm 2,Asia,Taiwan,22.52619,120.619761,Infiltration basin,River water,Humid
Lagoa do Peri,South America,Brasil,-27.72639,-48.5119,Bank filtration,Lake water,Humid
"Haidian, Peking",Asia,China,39.966394,116.319983,Aquifer storage using wells,River water,Semi-arid
Capdenac-Gare,Europe,France,44.582,2.082,Bank filtration,River water,Humid
Foissac,Europe,France,44.51086704,2.00351198,Infiltration basin,River water,Humid
Muklan,Asia,India,29.068497,75.659481,Aquifer storage and recovery,Storm water,Semi-arid
Heel,Europe,Netherlands,51.1886,5.881119,Infiltration basin,River water,Humid
Tiel,Europe,Netherlands,51.89,5.435,Bank filtration,River water,Humid
Tongzhou,Asia,China,40.1139,116.713155,Surface flooding and ditch-and-furrow,River water,Semi-arid
La Mitidja Basins,Africa,Algeria,36.520013,3.065827,Infiltration basin,River water,Dry sub-humid
WW Flehe + WW Staad + WW Holthausen,Europe,Germany,51.295,6.73,Bank filtration,River water,Humid
Xi'an University of Science and Technology,Asia,China,34.226901,108.984051,Aquifer storage and recovery,River water,Humid
Sar-chahan,Asia,Iran,28.061395,55.877645,Surface flooding and ditch-and-furrow,River water,Semi-arid
Tonami (Yasukawa),Asia,Japan,36.625676,137.004001,Infiltration basin,River water,Humid
Corkscrew – 2 ASR wells (ASR-1 LM-3982; ASR-2 LM-4267),North America,USA,26.46339,-81.704603,Aquifer storage and recovery,Reclaimed wastewater,Humid
ASR Phase II site,North America,USA,32.775841,-79.941536,Aquifer storage and recovery,Reclaimed wastewater,Humid
Fairbairn Dam,Oceania,Australia,-23.6945582,147.9385056,Check dam,River water,Semi-arid
Thompson Creek Spreading Grounds,North America,USA,34.13933,-117.710946,Check dam,River water,Semi-arid
Ergste,Europe,Germany,51.46,7.63,Bank filtration,River water,Humid
Kaifeng,Asia,China,34.790017,114.275198,Aquifer storage using wells,Groundwater,Dry sub-humid
Valle Aconcagua Dren las Vegas,South America,Chile,-32.83676027,-71.01150513,Infiltration basin,River water,Semi-arid
"Defence Colony, Block C 486",Asia,India,28.568671,77.229407,Rooftop Rainwater Harvesting,Storm water,Humid
Nieuwe Marktstraat,Europe,Netherlands,51.847,5.855,Bank filtration,River water,Humid
Chikhalgaon,Asia,India,18.565496,73.576591,Check dam,River water,Humid
"Medical-Dental Bldg. - 4A2,3",North America,USA,45.518723,-122.684149,Aquifer storage and recovery,Groundwater,Humid
Varamin,Asia,Iran,35.399904,51.733348,Check dam,River water,Semi-arid
Gaobeidian WWTP,Asia,China,39.895632,116.526057,Infiltration basin,Reclaimed wastewater,Semi-arid
Aquífero Cauê – Área de influência Apolo,South America,Brasil,-7.78,-63.6,Infiltration basin,Storm water,Humid
N/A,Asia,China,34.186181,111.268567,Infiltration basin,River water,Dry sub-humid
Charles M. Bolton well field,North America,USA,39.318151,-84.620627,Bank filtration,River water,Humid
Ben Sergao,Africa,Morocco,30.333874,-9.596897,Infiltration basin,Reclaimed wastewater,Semi-arid
Oregonian Bldg. - 3E2,North America,USA,45.514848,-122.681874,Aquifer storage and recovery,Groundwater,Humid
Bangpoon,Asia,Thailand,13.999498,100.573651,Aquifer storage using wells,River water,Humid
Bazley Weir (Three Moon Creek),Oceania,Australia,-24.893695,151.123261,Check dam,River water,Dry sub-humid
5 Wang Zhuang Lu,Asia,China,39.99876,116.338755,Aquifer storage using wells,River water,Semi-arid
Jeffara Plain,Africa,Tunisia,33.423801,10.36589,Aquifer storage using wells,River water,Semi-arid
Ica-Villacuri-Lanchas,South America,Peru,-14.049871,-75.72967,Infiltration basin,River water,Semi-arid
Kitui District,Africa,Kenia,-1.46194,38.00394,Sand Storage Dams,Groundwater,Semi-arid
Fazenda Belmonte,South America,Brasil,-24.0493718,-48.883994,Subsurface Dam,River water,Humid
Sangapur,Asia,India,17.821119,78.658174,Check dam,River water,Dry sub-humid
Baker City,North America,USA,44.766666,-117.858341,Aquifer storage and recovery,River water,Semi-arid
"Equitable Bldg. – 34N3,4,5",North America,USA,45.520576,-122.67799,Aquifer storage and recovery,Groundwater,Humid
Kinchant Dam,Oceania,Australia,-21.1971234,148.893793,Check dam,River water,Humid
Namsong,Asia,Korea,34.57321,126.912159,Subsurface Dam,Groundwater,Humid
Barrett AR site,North America,USA,45.947697,-118.421937,Reverse Drainage,River water,Semi-arid
CE Caatinga BS IV,South America,Brasil,-6.803995,-37.959114,Subsurface Dam,River water,Dry sub-humid
Wabash River - Indiana–American Water Company,North America,USA,39.476635,-87.418028,Bank filtration,River water,Humid
Sri Aurobindo Ashram,Asia,India,28.539627,77.199708,Rooftop Rainwater Harvesting,Storm water,Humid
Deep run lagoon,North America,USA,40.385622,-74.309219,Infiltration basin,River water,Humid
Zhaoyuan,Asia,China,37.380946,120.345108,Aquifer storage and recovery,Groundwater,Dry sub-humid
river Oja,Europe,Spain,42.57,-2.91,Infiltration basin,River water,Humid
Declez Basin,North America,USA,34.031898,-117.500702,Infiltration basin,Storm water,Semi-arid
Gully Winds,Oceania,Australia,-34.568604,138.7540464,Aquifer storage and recovery,River water,Semi-arid
Rayal Cheruvu area,Asia,India,13.5078,79.375606,Check dam,River water,Humid
Xi'an,Asia,China,34.180459,108.92807,Aquifer storage using wells,Reclaimed wastewater,Dry sub-humid
Grand Strand Water and Sewer Authority,North America,USA,33.782414,-79.024041,Aquifer storage and recovery,River water,Humid
Sítio Estação Ecológica UFMG,South America,Brasil,-19.88307,-43.975012,Trenches,Storm water,Humid
C. Rodenhuis,Europe,Netherlands,51.936,4.775,Bank filtration,River water,Humid
Nieuwegein,Europe,Netherlands,52.032,5.094,Aquifer storage and recovery,River water,Humid
Shuanghuayuan Community,Asia,China,39.897832,116.447768,Rooftop Rainwater Harvesting,Storm water,Semi-arid
Do?sebacke,Europe,Sweden,56.6735,16.3169,Infiltration basin,River water,Humid
Ixtapaluca (Parque Ejidal los Depósitos),North America,Mexico,19.324525,-98.843104,Infiltration basin,Storm water,Dry sub-humid
Lalpura (Koda Wala),Asia,India,27.264041,76.163959,Check dam,River water,Humid
Fazenda Baixa Verde,South America,Brasil,-8.916656,-44.7091,Subsurface Dam,River water,Humid
Bo?ckinger Wiesen,Europe,Germany,49.129,9.165,Infiltration basin,Lake water,Humid
Makauri Aquifer Managed Aquifer Recharge Trial,Oceania,New Zealand,-38.61044,177.9196,Aquifer storage and recovery,River water,Humid
Blagnac,Europe,France,43.63602113,1.389836355,Infiltration basin,River water,Humid
Schmarsow,Europe,Germany,53.47,13.929,Bank filtration,River water,Humid
Ja?niksenlinna,Europe,Finland,60.49,24.965,Infiltration basin,Lake water,Humid
Rusutja?rvi,Europe,Finland,60.433,24.982,Excess Irrigation,Lake water,Humid
Tiefwerder,Europe,Germany,52.52,13.22,Bank filtration,River water,Humid
Riku,Europe,Finland,61.464,24.072,Bank filtration,River water,Humid
Wohushan Reservoir,Asia,China,36.490536,116.960339,Check dam,River water,Dry sub-humid
Achiras del Gato,South America,Argentina,-31.4062,-64.1803,Barriers and Bunds,River water,Dry sub-humid
Oakes - Large Recharge Test Basin,North America,USA,46.126103,-98.094266,Infiltration basin,River water,Dry sub-humid
Eksjo?,Europe,Sweden,57.66,14.995,Infiltration basin,Lake water,Humid
Samorin,Europe,Slovakia,48.03218,17.31445,Bank filtration,River water,Humid
Abu Rawash,Africa,Egypt,29.677871,31.236138,Infiltration basin,Reclaimed wastewater,Hyper-arid
Oakes – recharge test 1 & 2,North America,USA,46.126103,-98.094266,Infiltration basin,River water,Dry sub-humid
HuaiHai Lu DongDuan,Asia,China,31.224633,121.479031,Aquifer storage and recovery,Groundwater,Humid
Fazenda Rompe,South America,Brasil,-11.46667,-40.2333,Subsurface Dam,River water,Dry sub-humid
Leiduin IP1-2,Europe,Netherlands,52,5,Aquifer storage and recovery,River water,Humid
"Bayizhen,",Asia,China,41.618709,123.297754,Infiltration basin,Storm water,Dry sub-humid
Guangrao Xian,Asia,China,37.034389,118.435146,Subsurface Dam,River water,Dry sub-humid
Sayreville Ponds 1 & 2,North America,USA,40.437961,-74.335887,Infiltration basin,Storm water,Humid
Louisville Riverbank Filtration,North America,USA,38.35937,-85.62856,Bank filtration,River water,Humid
Edwards Aquifer Authority Recharge Program,North America,USA,29.468326,-98.516913,Check dam,River water,Dry sub-humid
CE Caatinga BS II,South America,Brasil,-7.803995,-38.959114,Subsurface Dam,River water,Dry sub-humid
Edinburgh Park South,Oceania,Australia,-34.707798,138.650778,Aquifer storage and recovery,Storm water,Semi-arid
Ijsselstein,Europe,Netherlands,52.02166,5.040665,Bank filtration,River water,Humid
Siegniederung,Europe,Germany,50.8,7.207,Bank filtration,River water,Humid
City of North Las Vegas,North America,USA,36.244993,-115.110595,Aquifer storage and recovery,Lake water,Semi-arid
Mulgildie Weir (Three Moon Creek),Oceania,Australia,-25.0189,151.092984,Check dam,River water,Dry sub-humid
N/A,Asia,China,40.073906,109.80943,Infiltration basin,Reclaimed wastewater,Semi-arid
Carpendale Weir  (Lockyer Valley),Oceania,Australia,-27.571747,152.156704,Check dam,River water,Humid
Ketwig,Europe,Germany,51.364,6.929,Infiltration basin,River water,Humid
Southern Avra Valley Storage and Recovery Project (SAVSARP),North America,USA,32.176115,-111.224246,Infiltration basin,River water,Dry sub-humid
Sokh aquifer,Asia,Uzbekistan,40.3106,71.032182,Check dam,River water,Semi-arid
Oued Besbes,Africa,Algeria,34.900454,5.756197,Aquifer storage using wells,River water,Semi-arid
ETE Ponta Negra,South America,Brasil,-5.898202,-35.178925,Surface flooding and ditch-and-furrow,Reclaimed wastewater,Dry sub-humid
Leersum,Europe,Netherlands,52.012,5.429,Bank filtration,River water,Humid
Etiwanda Spreading Area (Joint Use of Etiwanda Debris Basin),North America,USA,34.152802,-117.508836,Infiltration basin,Storm water,Semi-arid
Sítio Tanquinho,South America,Brasil,-25.078805,-49.270172,Subsurface Dam,River water,Humid
Hitdorf + WW Süd,Europe,Germany,51.044,6.987,Bank filtration,River water,Humid
N/A,Asia,China,31.187215,121.361352,Rooftop Rainwater Harvesting,Storm water,Humid
Hazerswoude,Europe,Netherlands,61.00975,28.18268,Bank filtration,River water,Humid
Kale Zardabe,Asia,Iran,36.900281,55.474394,Surface flooding and ditch-and-furrow,Storm water,Semi-arid
Toushka Khoure,Africa,Egypt,22.4222222,31.62777777,Infiltration basin,River water,Hyper-arid
Victor Valley Water District,North America,USA,34.529969,-117.296367,Aquifer storage and recovery,River water,Semi-arid
Xi'an Engineering Technology College,Asia,China,34.251779,108.993197,Aquifer storage and recovery,River water,Humid
Jianye,Asia,China,32.031431,118.706239,Aquifer storage using wells,Groundwater,Humid
Los Sotillos,Europe,Spain,36.84,-5.83,Aquifer storage using wells,River water,Dry sub-humid
Mirrabooka,Oceania,Australia,-31.8456061,115.8444068,Aquifer storage and recovery,Groundwater,Dry sub-humid
Sant Vicenc? dels Horts,Europe,Spain,43.38,2.02,Infiltration basin,River water,Humid
Michael Okpara University of Agriculture,Africa,Nigeria,5.480602,7.545783,Aquifer storage using wells,Storm water,Humid
Dongling,Asia,China,41.713939,123.454993,Infiltration basin,Storm water,Dry sub-humid
Área da Agrishow,South America,Brasil,-9.803995,-40.959114,Subsurface Dam,River water,Semi-arid
Stammheim Nord / Süd,Europe,Germany,48.844,9.151,Bank filtration,River water,Humid
Ridge Park,Oceania,Australia,-34.9603666,138.640454,Aquifer storage and recovery,Storm water,Semi-arid
Sítio Parque Lagoa do Nado (1 e 2),South America,Brasil,-19.84175,-43.956758,Trenches,Storm water,Humid
Lagoa de Infiltração Cidade Jardim,South America,Brasil,-5.846633,-35.202974,Infiltration basin,Storm water,Dry sub-humid
Sliedrecht,Europe,Netherlands,51.825,4.773,Bank filtration,River water,Humid
Avis Weir (Three Moon Creek),Oceania,Australia,-24.979351,151.123473,Check dam,River water,Dry sub-humid
Bonneville Power Administration,North America,USA,47.922272,-122.097433,Aquifer storage using wells,Groundwater,Humid
City of Yakima,North America,USA,46.599605,-120.526976,Aquifer storage and recovery,River water,Dry sub-humid
Ujecie Polnoc,Europe,Poland,52.23,21.01,Bank filtration,Lake water,Humid
Garzweiler,Europe,Germany,51.17,6.44,Aquifer storage and recovery,Groundwater,Humid
Shanghai NO.21 cotton mill,Asia,China,31.253066,121.523593,Aquifer storage and recovery,River water,Humid
Nuestra Señora de Fátima,South America,Argentina,-30.35154626,-66.32171631,Check dam,Storm water,Semi-arid
Brenta Ramp,Europe,Italy,45.7214,11.6934,Subsurface Dam,River water,Humid
Pima Mine Road Recharge Project (PMRRP),North America,USA,32.016369,-110.958278,Infiltration basin,River water,Dry sub-humid
Wang He Zhuang Zi Cun,Asia,China,37.241307,120.172658,Subsurface Dam,River water,Dry sub-humid
Budhshelly,Asia,India,28.811682,75.578256,Aquifer storage and recovery,Storm water,Semi-arid
West Well Field,North America,USA,25.739801,-80.461394,Aquifer storage and recovery,Groundwater,Humid
Scottsdale Water Campus,North America,USA,33.659395,-111.892772,Aquifer storage and recovery,Reclaimed wastewater,Semi-arid
Lu?bbenau,Europe,Germany,51.868,13.932,Bank filtration,River water,Humid
Sítio Santo Antônio – Distrito de Capim,South America,Brasil,-9.8731,-40.23717,Subsurface Dam,River water,Semi-arid
Oakes – Small Recharge Test Basin,North America,USA,46.125,-98.093011,Infiltration basin,River water,Dry sub-humid
Benrath,Europe,Germany,51.16,6.84,Bank filtration,River water,Humid
Balisha River,Asia,China,40.426251,116.984759,Subsurface Dam,River water,Semi-arid
Damascus University Campus,Asia,Syria,33.511274,36.290802,Aquifer storage and recovery,River water,Semi-arid
Darnakambala area,Asia,India,13.545506,79.304971,Check dam,River water,Humid
Shijiazhuang,Asia,China,38.140566,114.512185,Infiltration basin,River water,Semi-arid
Soukra,Africa,Tunisia,36.883,10.25,Surface flooding and ditch-and-furrow,Reclaimed wastewater,Dry sub-humid
CE Caatinga BS,South America,Brasil,-8.803995,-39.959114,Subsurface Dam,River water,Semi-arid
City of Kerrville,North America,USA,30.045765,-99.142412,Aquifer storage and recovery,River water,Dry sub-humid
Kalwakole,Asia,India,17.12105,78.358502,Check dam,River water,Dry sub-humid
Karanampettai,Asia,India,11.017903,77.185017,Check dam,River water,Dry sub-humid
Maribor,Europe,Slovenia,46.5567,15.646,Bank filtration,River water,Humid
N/A,Asia,China,39.725872,102.620827,Subsurface Dam,River water,Arid
Ocotillo ASR Facility,North America,USA,33.256422,-111.89217,Aquifer storage and recovery,Reclaimed wastewater,Semi-arid
"President Estate , New Delhi",Asia,India,28.616437,77.197286,Trenches,Storm water,Humid
Mount Gambier,Oceania,Australia,-37.8263533,140.7788041,Aquifer storage and recovery,Storm water,Semi-arid
Kraemer Basin,North America,USA,33.861014,-117.856654,Infiltration basin,Reclaimed wastewater,Semi-arid
Borsodszirak,Europe,Hungary,48.261,20.768,Infiltration basin,River water,Humid
Leiduin WIP,Europe,Netherlands,52,5,Aquifer storage and recovery,River water,Humid
San Jacinto recharge site,North America,USA,33.771743,-116.922753,Infiltration basin,River water,Semi-arid
Paleshwaram,Asia,India,13.322428,80.044002,Check dam,River water,Humid
Rosenau,Europe,Austria,47.99288,14.378554,Infiltration basin,Lake water,Humid
Wang He Cun,Asia,China,36.860907,117.148194,Subsurface Dam,River water,Dry sub-humid
Long Wan Dian,Asia,China,35.62375,116.849918,Surface flooding and ditch-and-furrow,River water,Dry sub-humid
Aquífero Cauê – Área de influência Capanema,South America,Brasil,-7.77,-64.5,Infiltration basin,Storm water,Humid
La Jolla Basin,North America,USA,33.860794,-117.869659,Infiltration basin,River water,Semi-arid
Virttaankangas,Europe,Finland,60.901196,22.692576,Infiltration basin,River water,Humid
Warner Basin System,North America,USA,33.854693,-117.830223,Infiltration basin,River water,Semi-arid
Bodegraven,Europe,Netherlands,52.09111,4.750557,Bank filtration,River water,Humid
Dijklaan,Europe,Netherlands,51.925,4.784,Bank filtration,River water,Humid
Evesham Township MUA,North America,USA,39.852528,-74.879292,Aquifer storage and recovery,Groundwater,Humid
Peck Road Spreading Basin,North America,USA,34.099041,-118.016982,Infiltration basin,Lake water,Semi-arid
Lakehaven Utility District,North America,USA,47.318059,-122.335041,Aquifer storage and recovery,River water,Humid
Saham,Asia,Oman,24.210171,56.731968,Check dam,River water,Arid
Lincoln Basin,North America,USA,33.834318,-117.865443,Infiltration basin,River water,Semi-arid
Castellbisbal,Europe,Spain,41.47,1.96,Infiltration basin,River water,Humid
Miremont,Europe,France,45.89872312,2.716676426,Infiltration basin,River water,Humid
Engineering Design & Research Institute,Asia,China,39.925043,116.301297,Aquifer storage and recovery,Storm water,Semi-arid
"Al Hamra, Wadi Ghul",Asia,Oman,23.139653,57.235907,Check dam,River water,Semi-arid
Kiindu Dam 3,Africa,Kenia,-1.46194,38.00394,Subsurface Dam,River water,Semi-arid
Bacia 2: Rod. Geraldo Silva Nascimento – Instituto Federal Goiano,South America,Brasil,-17.5019,-48.2269,Infiltration basin,Storm water,Humid
Wanglong Farm 1,Asia,Taiwan,22.52619,120.619761,Infiltration basin,River water,Humid
Angas – Bremer,Oceania,Australia,-35.3001429,139.0649091,Aquifer storage and recovery,River water,Semi-arid
Curral Queimado,South America,Brasil,-6.37308,-37.21417,Subsurface Dam,Storm water,Dry sub-humid
Fazenda Asa Branca-comunidade Barreiro,South America,Brasil,-24.0446051,-48.91742,Subsurface Dam,River water,Humid
Mekhtan Dam,Africa,Yemen,15.38153,44.331205,Check dam,River water,Arid
Shriram School,Asia,India,28.564685,77.153755,Rooftop Rainwater Harvesting,Storm water,Humid
Mitchell River,Oceania,Australia,-37.7794543,147.3707958,Aquifer storage and recovery,River water,Humid
Ben Lomond Spreading Grounds,North America,USA,34.105117,-117.882746,Infiltration basin,Storm water,Semi-arid
Vauvert,Europe,France,43.69291499,4.276675945,Aquifer storage and recovery,River water,Humid
Sidfa Riverbank Filtration,Africa,Egypt,26.967987,31.389553,Bank filtration,River water,Hyper-arid
Ixtapaluca (San Buenaventura),North America,Mexico,19.307335,-98.859231,Aquifer storage and recovery,Storm water,Dry sub-humid
Wenyu River,Asia,China,40.13173,116.31149,Check dam,Reclaimed wastewater,Semi-arid
Bajestan,Asia,Iran,34.519212,58.172951,Surface flooding and ditch-and-furrow,River water,Semi-arid
Qian Han,Asia,China,36.397574,120.113064,Surface flooding and ditch-and-furrow,River water,Dry sub-humid
Aquífero Cauê – Área de influência Mutuca,South America,Brasil,-7.79,-60.92,Infiltration basin,Storm water,Humid
Fountain Valley – Water Factory 21,North America,USA,33.693724,-117.945191,Aquifer storage using wells,Reclaimed wastewater,Semi-arid
Ciudad Juarez,North America,Mexico,31.701073,-106.455753,Aquifer storage using wells,Storm water,Semi-arid
Marco Lakes – ASR-1 CO-2428,North America,USA,26.065555,-81.69333333,Aquifer storage and recovery,Lake water,Humid
MBT Ranch Recharge Project/ Vidler Recharge Facility,North America,USA,33.557785,-113.395037,Infiltration basin,River water,Semi-arid
Johannisthal,Europe,Germany,52.45,13.5,Bank filtration,River water,Humid
Andrews Farm (Stebonheath Park),Oceania,Australia,-34.675922,138.665145,Aquifer storage and recovery,Storm water,Semi-arid
Karany,Europe,Czech Republik,50.17,14.73,Bank filtration,River water,Humid
Kaler (Tode Sagar),Asia,India,27.155505,76.224218,Check dam,River water,Humid
Forbes Spreading Grounds,North America,USA,34.118947,-117.832627,Infiltration basin,Lake water,Semi-arid
Citrus Spreading Grounds,North America,USA,34.108788,-117.893487,Infiltration basin,River water,Semi-arid
Assentamento Oziel Pereira (Owner: Anilda P.dos Santos),South America,Brasil,-6.8967,-35.8009,Subsurface Dam,River water,Dry sub-humid
Comunidade Santo Agostinho (Owner: Fernando D. de Souza),South America,Brasil,-7.22381,-37.2532,Subsurface Dam,River water,Dry sub-humid
Chhara,Asia,India,28.696818,76.717358,Aquifer storage and recovery,Storm water,Humid
Gabcikovo,Europe,Slovakia,47.89,17.57,Bank filtration,River water,Humid
Lavelanet-de-Comminges,Europe,France,43.25581424,1.11824784,Infiltration basin,River water,Humid
Lower Tenthill Weir  (Lockyer Valley),Oceania,Australia,-27.593005,152.235815,Check dam,River water,Humid
Beijing,Asia,China,39.911143,116.32965,Rooftop Rainwater Harvesting,Storm water,Semi-arid
Banana Basin,North America,USA,34.094449,-117.497383,Infiltration basin,Reclaimed wastewater,Semi-arid
Placentia Basin,North America,USA,33.857704,-117.886221,Infiltration basin,River water,Semi-arid
Fochabers,Europe,United Kingdom,57.611,-3.116,Bank filtration,River water,Humid
Sun Lakes City,North America,USA,33.218165,-111.869533,Aquifer storage and recovery,Reclaimed wastewater,Semi-arid
Cajamarca,South America,Peru,-7.159392,-78.531114,Trenches,Storm water,Humid
Lange Erlen,Europe,Switzerland,47.57,7.6,Surface flooding and ditch-and-furrow,River water,Humid
Hunbai,Asia,China,41.828288,123.601173,Infiltration basin,Storm water,Dry sub-humid
Dagujia River,Asia,China,37.517839,121.283957,Subsurface Dam,River water,Dry sub-humid
Lagoa Manoel Felipe,South America,Brasil,-5.79634,-35.20299,Infiltration basin,Storm water,Dry sub-humid
Mankhal Cheruvu,Asia,India,17.165704,78.447879,Check dam,River water,Dry sub-humid
Greenspot Rd basin and recharge dams,North America,USA,34.099597,-117.118445,Infiltration basin,River water,Semi-arid
Garmsar,Asia,Iran,35.26982,52.438213,Check dam,River water,Semi-arid
San José del Cabo,North America,Mexico,23.126883,-109.809358,Check dam,River water,Arid
Souss - Massa,Africa,Morocco,30.4703,-8.877,Channel infiltration/spreading,River water,Semi-arid
Tujunga Spreading Grounds,North America,USA,34.226479,-118.41479,Infiltration basin,River water,Semi-arid
BS-2,South America,Brasil,-8.069837,-39.32563,Subsurface Dam,Storm water,Semi-arid
Halstead recharge site – trench and basin,North America,USA,38.014659,-97.565488,Aquifer storage using wells,Groundwater,Semi-arid
Huantai,Asia,China,36.980017,117.911602,Infiltration basin,River water,Dry sub-humid
Oberwerth,Europe,Germany,50.34,7.59,Bank filtration,River water,Humid
Turner Basins,North America,USA,34.073858,-117.596712,Infiltration basin,Reclaimed wastewater,Semi-arid
Emamzadeh Jaafar Artificial Recharge (EJAR) Project,Asia,Iran,30.325833,50.969885,Check dam,River water,Semi-arid
Ana Catchment 1,Africa,Kenia,-1.34344,37.98505,Subsurface Dam,River water,Semi-arid
El Paso Water Utilities 1 (EPWU),North America,USA,31.940272,-106.364521,Aquifer storage and recovery,Reclaimed wastewater,Semi-arid
Olga Water Treatment Plant,North America,USA,26.72,-81.68222222,Aquifer storage and recovery,Reclaimed wastewater,Humid
Twin Oaks ASR – San Antonio Water System (SAWS),North America,USA,29.126093,-98.404393,Aquifer storage and recovery,Groundwater,Semi-arid
Bill Gun Dam  (Lockyer Valley),Oceania,Australia,-27.6283761,152.3785385,Check dam,River water,Humid
County Line AR,North America,USA,45.792006,-119.45561,Trenches,River water,Semi-arid
Brooks Street Basin,North America,USA,34.060761,-117.711076,Infiltration basin,Reclaimed wastewater,Semi-arid
Weiler,Europe,Germany,51.02,6.87,Bank filtration,River water,Humid
Loeriesfontein,Africa,South Africa,-30.953936,19.443363,Aquifer storage using wells,Storm water,Semi-arid
Burris Basin,North America,USA,33.822255,-117.870475,Infiltration basin,River water,Semi-arid
Hero Honda Motors,Asia,India,28.233324,76.803775,Rooftop Rainwater Harvesting,Storm water,Humid
"Mother Dairy, F&V Unit",Asia,India,28.620621,77.28724,Rooftop Rainwater Harvesting,Storm water,Humid
Condomínio Residencial Alto da Boa Vista,South America,Brasil,-15.62388,-47.762485,Aquifer storage using wells,Storm water,Humid
Callide Weir (Callide Valley),Oceania,Australia,-24.3467283,150.4731092,Check dam,River water,Semi-arid
Badain Jilin Samo,Asia,China,39.725872,102.620827,Infiltration basin,Storm water,Arid
Lake Baltezers,Europe,Latvia,56.95471,24.10538,Bank filtration,River water,Humid
Ixtapaluca,North America,Mexico,19.287398,-98.87335,Check dam,Storm water,Dry sub-humid
Yongchang-Jinchang,Asia,China,38.476994,102.286657,Infiltration basin,River water,Semi-arid
Goleta Water District,North America,USA,34.437686,-119.854427,Aquifer storage and recovery,Lake water,Semi-arid
Tonami (Kitsunejima) No.1-3,Asia,Japan,36.651667,136.918889,Infiltration basin,River water,Humid
Hunpu,Asia,China,41.717347,123.318147,Infiltration basin,Storm water,Dry sub-humid
Grove Basin,North America,USA,34.016749,-117.63002,Infiltration basin,Storm water,Semi-arid
Lower Day Basin,North America,USA,34.132022,-117.543524,Infiltration basin,Storm water,Semi-arid
Manzanares,South America,Chile,-36.35599726,-72.50955319,Trenches,Storm water,Humid
Kitui District,Africa,Kenia,-1.46194,38.00394,Subsurface Dam,Groundwater,Semi-arid
Kingfisher,Oceania,Australia,-34.810455,138.695693,Aquifer storage and recovery,Storm water,Semi-arid
Shram sakthi Bhawan (Ministry of Labour and Employment),Asia,India,28.618466,77.212059,Trenches,Storm water,Humid
Rustaq,Asia,Oman,23.955932,57.013136,Check dam,River water,Arid
Clarendon Weir  (Lockyer Valley),Oceania,Australia,-27.526693,152.374924,Check dam,River water,Humid
Sítio Parque Nossa Senhora da Piedade,South America,Brasil,-19.84793,-43.92618,Trenches,Storm water,Humid
Hieroglyphic Mountains Recharge Project (HMRP),North America,USA,33.759517,-112.425473,Infiltration basin,River water,Semi-arid
Longhe,Asia,China,34.669067,112.479196,Subsurface Dam,River water,Dry sub-humid
Echthausen,Europe,Germany,51.5,7.89,Bank filtration,River water,Humid
N/A,Asia,China,35.213283,107.349539,Subsurface Dam,River water,Dry sub-humid
Lo?cknitz-See,Europe,Germany,53.447,14.225,Bank filtration,Lake water,Humid
Fanshan,Asia,China,39.703593,116.158776,Surface flooding and ditch-and-furrow,River water,Semi-arid
Barra de Maniçoba,South America,Brasil,-6.32229,-37.22113,Subsurface Dam,Storm water,Dry sub-humid
Halstead recharge site – well,North America,USA,38.014659,-97.565488,Aquifer storage using wells,Groundwater,Semi-arid
Valle Aconcagua,South America,Chile,-32.7823009,-70.6865124,Infiltration basin,River water,Semi-arid
Floreat,Oceania,Australia,-31.9503107,115.7880828,Reverse Drainage,Reclaimed wastewater,Dry sub-humid
JNU – IIT - Sanjay Van Project - Sanjay Van,Asia,India,28.530088,77.173517,Check dam,River water,Humid
Korba,Africa,Tunisia,36.66471,10.909284,Infiltration basin,Reclaimed wastewater,Dry sub-humid
Haidian,Asia,China,39.918853,116.214405,Infiltration basin,River water,Semi-arid
Johnson Aquifer Recharge Site,North America,USA,45.95698,-118.439909,Infiltration basin,River water,Semi-arid
Assentamento Pedro Henrique (Owner: Francisco Lira dos Santos,South America,Brasil,-6.7856,-35.7607,Subsurface Dam,River water,Dry sub-humid
Jardim Atlântico,South America,Brasil,-16.7265,-49.2953,Aquifer storage using wells,Storm water,Humid
Lobau,Europe,Austria,48.174,16.5,Bank filtration,River water,Humid
Victoria Basin,North America,USA,34.129886,-117.50619,Infiltration basin,Reclaimed wastewater,Semi-arid
EMBRAPA – Campo experimental da Caatinga BS-1,South America,Brasil,-9.069175,-40.328099,Subsurface Dam,River water,Semi-arid
Lagoa de Alagamar,South America,Brasil,-5.883129,-35.17535,Infiltration basin,Storm water,Dry sub-humid
Villigst,Europe,Germany,51.45192,7.627938,Infiltration basin,River water,Humid
Ulfiswiese,Europe,Austria,47.257,11.344,Bank filtration,River water,Humid
Oregonian Bldg. - 3E1,North America,USA,45.514848,-122.681874,Aquifer storage and recovery,Groundwater,Humid
Geldermalsen,Europe,Netherlands,51.88126,5.288029,Bank filtration,River water,Humid
Lagoa de Infiltração Mirassol,South America,Brasil,-5.844457,-35.204664,Infiltration basin,Storm water,Dry sub-humid
Veerdam,Europe,Netherlands,51.82423,4.683201,Bank filtration,River water,Humid
Maligampattu Odai,Asia,India,11.735055,79.52805,Aquifer storage using wells,River water,Humid
Wadi Al Hawasnah & Wadi Bani Omar Dam,Asia,Oman,23.955932,57.013136,Check dam,River water,Arid
Santa Fe Spreading Grounds,North America,USA,34.120986,-117.954246,Infiltration basin,Lake water,Semi-arid
Sítio Almeida,South America,Brasil,-7.15178,-35.847647,Subsurface Dam,River water,Dry sub-humid
Koppanymonostor,Europe,Hungary,47.75271,18.06084,Bank filtration,River water,Humid
Fred Hervey Water Reclamation Plant,North America,USA,31.944596,-106.364348,Aquifer storage using wells,Reclaimed wastewater,Semi-arid
Comunidade Mandacácio,South America,Brasil,-8.069863,-39.328154,Subsurface Dam,River water,Semi-arid
Torgelow,Europe,Germany,53.628,14.08,Bank filtration,River water,Humid
"Balichuang, Beijing",Asia,China,39.924655,116.300799,Rooftop Rainwater Harvesting,Storm water,Semi-arid
Madam,Asia,India,12.38472,79.60173,Subsurface Dam,Groundwater,Dry sub-humid
Winkler Avenue,North America,USA,26.602222,-81.881388,Aquifer storage and recovery,Reclaimed wastewater,Humid
Manshad,Asia,Iran,31.605405,54.333416,Check dam,River water,Semi-arid
Urfahr,Europe,Austria,48.307,14.286,Bank filtration,River water,Humid
Wuhlheide,Europe,Germany,52.47,13.53,Bank filtration,River water,Humid
Tonopah Desert Recharge Project (TDRP),North America,USA,33.555862,-112.984259,Infiltration basin,River water,Semi-arid
Wynn Vale Dam,Oceania,Australia,-34.799446,138.699468,Aquifer storage and recovery,Storm water,Semi-arid
"National Bank of Washington, Villa Plaza Branch – 2D1,3",North America,USA,47.163249,-122.514397,Aquifer storage and recovery,Groundwater,Humid
Tanglabidly,Asia,Iran,31.49373,54.435217,Check dam,River water,Semi-arid
"Mannheim ASR Project, Region of Waterloo",North America,Canada,43.401755,-80.531282,Aquifer storage and recovery,River water,Humid
Sucre,South America,Bolivia,-19.05245,-65.245929,Trenches,Storm water,Semi-arid
Frankfurter WW2 + WW5 + WW7,Europe,Germany,50.097267,8.560689,Infiltration basin,River water,Humid
Shanghai,Asia,China,31.242089,121.458065,Aquifer storage and recovery,Groundwater,Humid
Hawks Prairie Reclaimed Water Satellite,North America,USA,47.07446,-122.765124,Infiltration basin,Reclaimed wastewater,Humid
Cluj,Europe,Romania,46.7475,23.4908,Bank filtration,River water,Humid
Peace River ASR Project,North America,USA,27.094896,-82.014606,Aquifer storage and recovery,River water,Humid
Bugaelva,Europe,Norway,63.340806,9.126932,Bank filtration,River water,Humid
Szentendre Island,Europe,Hungary,47.738,19.092,Bank filtration,River water,Humid
Binsheimer Feld,Europe,Germany,51.509,6.702,Infiltration basin,River water,Humid
Arcade,Europe,Italy,45.7807,12.2195,Aquifer storage using wells,River water,Humid
Nagybajcs-szegoye,Europe,Hungary,47.69636,17.64816,Bank filtration,River water,Humid
Buena Vista Spreading Basin,North America,USA,34.122795,-117.983233,Infiltration basin,River water,Semi-arid
Sohar Dam,Asia,Oman,24.264643,56.73214,Check dam,River water,Arid
Kievietsweg,Europe,Netherlands,52,5,Bank filtration,River water,Humid
"BPCL Housing Complex, Sector 56",Asia,India,28.599887,77.342803,Rooftop Rainwater Harvesting,Storm water,Humid
Campina de Faro,Europe,Portugal,37.042,-7.915,Infiltration basin,Storm water,Dry sub-humid
Ujecie Bogucino-Rosciecino,Europe,Poland,54.169,15.56,Bank filtration,River water,Humid
Little Dalton Spreading Grounds,North America,USA,34.152551,-117.841742,Infiltration basin,Lake water,Semi-arid
Akola region,Asia,India,20.701167,77.002079,Trenches,Storm water,Humid
Herten,Europe,Netherlands,51.181,5.962,Aquifer storage and recovery,Groundwater,Humid
Rio Hondo Coastal Spreading Grounds,North America,USA,33.988642,-118.110145,Infiltration basin,Lake water,Semi-arid
Sítio Olho D'água dos Brandões,South America,Brasil,-6.2118,-36.41419,Subsurface Dam,River water,Dry sub-humid
Cottesloe Peninsula Groundwater Restoration Project,Oceania,Australia,-31.9989621,115.7595079,Reverse Drainage,Storm water,Dry sub-humid
Distrito Curral Velho,South America,Brasil,-6.23119,-38.00017,Subsurface Dam,River water,Dry sub-humid
Sítio Maniçoba,South America,Brasil,-7.915354,-40.08788,Subsurface Dam,River water,Semi-arid
Pitombeira,South America,Brasil,-6.45574,-37.24519,Subsurface Dam,Storm water,Dry sub-humid
Zanjan plain,Asia,Iran,36.67929,48.479061,Surface flooding and ditch-and-furrow,River water,Semi-arid
Vuonteenharju,Europe,Finland,62.244,25.747,Excess Irrigation,River water,Humid
Mount Pleasant Waterworks & Sewer Commission,North America,USA,32.833053,-79.826024,Aquifer storage and recovery,Groundwater,Humid
Wala reservoir,Europe,Jordan,31.56806,35.80444,Check dam,Storm water,Semi-arid
Hunan,Asia,China,41.758712,123.506436,Infiltration basin,Storm water,Dry sub-humid
Wadi Al Jizzi,Asia,Oman,24.312339,56.516248,Check dam,River water,Arid
Trecho do Rio Itajaí do Sul,South America,Brasil,-27.41336,-49.6054,Bank filtration,River water,Humid
Marco Lakes – Expanded – ASR 3,North America,USA,26.065555,-81.69333333,Aquifer storage and recovery,Lake water,Humid
WW Styrum Ost + WW Styrum West,Europe,Germany,51.46,6.8,Infiltration basin,River water,Humid
The Paddocks,Oceania,Australia,-34.811716,138.642021,Aquifer storage and recovery,Storm water,Semi-arid
Shijingshan,Asia,China,39.934926,116.204792,Aquifer storage using wells,River water,Semi-arid
Huantai,Asia,China,36.945175,118.101882,Surface flooding and ditch-and-furrow,River water,Dry sub-humid
Ahvenisto,Europe,Finland,61.29572,26.51168,Infiltration basin,River water,Humid
"First National Bank, 1405 S.W. Morrison St. Branch3- 3R1,2",North America,USA,45.5214,-122.686471,Aquifer storage and recovery,Groundwater,Humid
Off-River Channel,North America,USA,33.84118,-117.860583,Infiltration basin,River water,Semi-arid
Rovatnet,Europe,Norway,63.238397,9.042739,Bank filtration,Lake water,Humid
Linsental,Europe,Switzerland,47.468,8.758,Bank filtration,River water,Humid
Pacoima Spreading Grounds,North America,USA,34.256425,-118.448018,Infiltration basin,Lake water,Semi-arid
Village Green/ Kensington University,Oceania,Australia,-33.918488,151.227858,Reverse Drainage,Storm water,Humid
Jagsi-Sarfabad deep,Asia,India,29.276362,76.63632,Aquifer storage and recovery,River water,Humid
Baoshan Farm,Asia,China,46.937761,130.932933,Infiltration basin,Storm water,Dry sub-humid
American Pipe & Construction Co.,North America,USA,45.52921,-122.664035,Aquifer storage and recovery,Groundwater,Humid
Área do Laboratório de Sistemas Prediais - EEC -UFG,South America,Brasil,-16.67698,-49.241,Aquifer storage using wells,Storm water,Humid
Durango,North America,Mexico,24.0277202,-104.6531759,Barriers and Bunds,River water,Dry sub-humid
University of Sasketchewan field site 2,North America,Canada,52.404789,-107.239452,Aquifer storage using wells,Lake water,Semi-arid
Raudatain well field R-63,Asia,Kuwait,29.880411,47.72133,Aquifer storage and recovery,Groundwater,Semi-arid
San Gabriel River (San Gabriel Valley),North America,USA,33.9997,-118.070543,Check dam,Lake water,Semi-arid
Bhaonta (Beruji),Asia,India,27.333514,76.218212,Check dam,River water,Humid
Arrowhead Ranch Water Reclamation Facility (ARWRF),North America,USA,33.668322,-112.196979,Aquifer storage and recovery,Reclaimed wastewater,Semi-arid
Assentamento Pedro Henrique - BS-4 (Owner: Maria de Lourdes F. da Silva),South America,Brasil,-6.78083,-35.75722,Subsurface Dam,River water,Dry sub-humid
Al-Mazraa,Asia,Syria,33.52459,36.296725,Aquifer storage and recovery,River water,Semi-arid
"Pacific Power & Light Co. - 3D5,6",North America,USA,45.518028,-122.678194,Aquifer storage and recovery,Groundwater,Humid
Xi'an Nuclear Instrument Factory,Asia,China,34.222643,108.955589,Aquifer storage and recovery,River water,Dry sub-humid
Sandy Creek Weir  (Lockyer Valley),Oceania,Australia,-27.637178,152.331268,Check dam,River water,Humid
New River-Agua Fria River Underground Storage Project (NAUSP),North America,USA,33.526209,-112.285105,Infiltration basin,River water,Semi-arid
Breehei,Europe,Netherlands,51.482,6.011,Aquifer storage and recovery,Groundwater,Humid
Big Dalton Spreading Grounds,North America,USA,34.153644,-117.836233,Infiltration basin,River water,Semi-arid
BF Plant Nokia - Maatialaharju,Europe,Finland,61.48072,23.50126,Bank filtration,River water,Humid
Sand Hollow Trench,North America,USA,37.128629,-113.374203,Trenches,Groundwater,Semi-arid
Ottappalam,Asia,India,10.770063,76.37837,Subsurface Dam,Groundwater,Humid
T Kromme Gat + De Put,Europe,Netherlands,51.827,4.822,Bank filtration,River water,Humid
Sojovice,Europe,Czech Republik,50.216359,14.755827,Bank filtration,River water,Humid
Kissimmee River ASR system (KRARS),North America,USA,27.155194,-80.874917,Aquifer storage and recovery,River water,Humid
Shingnapur,Asia,India,20.942633,77.489684,Bank filtration,River water,Humid
Dominguez Gap Spreading Grounds,North America,USA,33.845733,-118.203074,Infiltration basin,River water,Semi-arid
Linkes Tumed-Banne,Asia,China,40.785557,111.863823,Aquifer storage and recovery,Groundwater,Semi-arid
Verdun-sur-Garonne,Europe,France,43.85389,1.236389,Infiltration basin,River water,Humid
Shitoro,Asia,Japan,34.841013,138.1081,Subsurface Dam,Groundwater,Humid
Fazenda Sítio Manoel,South America,Brasil,-6.524552,-36.373584,Subsurface Dam,River water,Dry sub-humid
Oak Creek,North America,USA,42.874693,-87.92191,Aquifer storage and recovery,Lake water,Humid
Surya Vihar Appartments,Asia,India,28.517881,77.077429,Rooftop Rainwater Harvesting,Storm water,Humid
Lower Flagstone Creek Weir  (Lockyer Valley),Oceania,Australia,-27.592346,152.142102,Check dam,River water,Humid
Atlantis Water Resource Management Scheme (AWRMS),Africa,South Africa,-33.628087,18.449092,Infiltration basin,Reclaimed wastewater,Semi-arid
Kampung Jenderam Hilir – well No. 2,Asia,Malaysia,2.89234,101.720818,Bank filtration,River water,Humid
Comarca Lagunera,North America,Mexico,25.55,-103.433333,Infiltration basin,Lake water,Semi-arid
So?derta?lje,Europe,Sweden,59.195,17.625,Infiltration basin,Lake water,Humid
Xian,Asia,China,34.322784,108.931544,Aquifer storage using wells,River water,Dry sub-humid
Rokugo basin 2,Asia,Japan,39.416667,140.568056,Infiltration basin,River water,Humid
Qingfeng Farm,Asia,China,45.786947,133.072354,Aquifer storage and recovery,Storm water,Dry sub-humid
Cuenca del Río Sonora,North America,Mexico,29.068506,-110.954286,Infiltration basin,Reclaimed wastewater,Semi-arid
"Federal Savings & Loan Association Building - 27G1,2",North America,USA,45.630385,-122.670789,Aquifer storage and recovery,Groundwater,Humid
Valles Centrales de Oaxaca,North America,Mexico,16.964935,-96.578188,Channel infiltration/spreading,River water,Humid
Aquífero Cauê – Área de influência Fechos Auxiliar,South America,Brasil,-7.78,-60.9,Infiltration basin,Storm water,Humid
Culemborg,Europe,Netherlands,51.948,5.233,Bank filtration,River water,Humid
Mu?ndelheim,Europe,Germany,51.369,6.688,Bank filtration,River water,Humid
"Fengtai, Peking",Asia,China,39.829667,116.248785,Surface flooding and ditch-and-furrow,River water,Semi-arid
Har Ki Pauri,Asia,India,29.961269,78.175776,Bank filtration,River water,Humid
Jinlang Shangquan,Asia,China,41.775012,123.440514,Aquifer storage using wells,River water,Dry sub-humid
Kroombit Dam (Callide Valley),Oceania,Australia,-24.417232,150.772157,Channel infiltration/spreading,River water,Semi-arid
La Mitidja Legros System,Africa,Algeria,36.585054,2.883073,Infiltration basin,River water,Dry sub-humid
Oued Biskra,Africa,Algeria,34.89222222,5.7425,Check dam,River water,Semi-arid
Stolpe,Europe,Germany,52.66,13.26,Surface flooding and ditch-and-furrow,River water,Humid
Wesseling-Hersel,Europe,Germany,50.822,6.993,Bank filtration,River water,Humid
Jinjiang Qu,Asia,China,30.667544,104.092139,Rooftop Rainwater Harvesting,Storm water,Humid
Sulaibyia,Asia,Kuwait,29.282019,47.799633,Infiltration basin,Reclaimed wastewater,Semi-arid
Montclair Basin,North America,USA,34.087024,-117.702081,Infiltration basin,Storm water,Semi-arid
Ohio River - Indiana–American Water Company,North America,USA,38.296766,-85.68418,Bank filtration,River water,Humid
Grobbendonk,Europe,Belgium,51.2,4.7167,Infiltration basin,River water,Humid
Pleasanton,North America,USA,37.663808,-121.878132,Aquifer storage and recovery,River water,Semi-arid
Fort Dix Land Application Site Infiltration Basin Project,North America,USA,39.983723,-74.613484,Infiltration basin,Reclaimed wastewater,Humid
Dagu River,Asia,China,36.203538,120.111597,Subsurface Dam,River water,Dry sub-humid
WW Severin,Europe,Germany,50.924651,6.966828,Bank filtration,River water,Humid
850 Nongchang,Asia,China,45.733463,132.492276,Aquifer storage and recovery,Storm water,Dry sub-humid
WW Burgaltendorf,Europe,Germany,51.428426,7.105129,Infiltration basin,River water,Humid
Perry Lakes,Oceania,Australia,-31.9437805,115.780462,Reverse Drainage,Reclaimed wastewater,Dry sub-humid
river Esgueva,Europe,Spain,41.83,-4.95,Aquifer storage and recovery,River water,Humid
Friedrichshagen,Europe,Germany,52.44,13.64,Bank filtration,Lake water,Humid
Hietasalo,Europe,Finland,62.893,27.68,Bank filtration,River water,Humid
San Jerónimo Silacayoapilla,North America,Mexico,17.803086,-97.849213,Check dam,Storm water,Semi-arid
River View Basin,North America,USA,33.823354,-117.866196,Infiltration basin,River water,Semi-arid
Derwent Park,Oceania,Australia,-42.830898,147.293093,Aquifer storage and recovery,Storm water,Humid
Westhofen1,Europe,Germany,51.41527,7.53417,Infiltration basin,River water,Humid
Glasgow,Europe,United Kingdom,55.87261,-4.252396,Bank filtration,River water,Humid
Tea Tree Gully Golf Course,Oceania,Australia,-34.8035991,138.7293378,Aquifer storage and recovery,Storm water,Semi-arid
Kiindu Dam 6,Africa,Kenia,-1.45142,37.99972,Subsurface Dam,River water,Semi-arid
Calleguas – Metropolitan Water District,North America,USA,34.246567,-118.832248,Aquifer storage and recovery,Lake water,Semi-arid
N/A,Asia,China,38.850061,80.840264,Subsurface Dam,River water,Arid
Assentamento Pedro Henrique - BS-2 (Owner: Severino Candido de Araújo),South America,Brasil,-6.78083,-35.75722,Subsurface Dam,River water,Dry sub-humid
"AQUITOPIA, Gareh-Bygone-Plain",Asia,Iran,28.60562,53.934367,Surface flooding and ditch-and-furrow,River water,Semi-arid
Fish Canyon Spreading Grounds,North America,USA,34.155909,-117.922022,Check dam,River water,Semi-arid
Saticoy,North America,USA,34.279271,-119.142216,Infiltration basin,River water,Semi-arid
Adam's ASR test site,North America,Canada,52.276007,-106.70293,Aquifer storage and recovery,Lake water,Semi-arid
Croissy-sur-Seine,Europe,France,48.87968,2.142506,Infiltration basin,River water,Humid
Santa Clara County Water District,North America,USA,37.322411,-121.863073,Aquifer storage and recovery,River water,Semi-arid
Carmona,Europe,Spain,37.26,-5.98,Infiltration basin,River water,Dry sub-humid
Irwindale Spreading Grounds/ Manning Pit,North America,USA,34.098292,-117.932957,Infiltration basin,Lake water,Semi-arid
Lagoa da Petrobrás,South America,Brasil,-5.831019,-35.227377,Infiltration basin,Storm water,Dry sub-humid
Gordons Corner Well-Injection Facility,North America,USA,40.334697,-74.275669,Aquifer storage using wells,Groundwater,Humid
Clackamas River Water ASR,North America,USA,45.361589,-122.582873,Aquifer storage and recovery,River water,Humid
Ban Nong Na (Nong Kula) 2,Asia,Thailand,16.646433,99.999297,Infiltration basin,River water,Humid
Vehonniemi- Isokangas Esker,Europe,Finland,61.382,24.2,Bank filtration,Lake water,Humid
Burdekin Delta,Oceania,Australia,-19.612734,147.4199768,Infiltration basin,River water,Dry sub-humid
C-111 infiltration basins,North America,USA,25.464079,-80.474013,Infiltration basin,River water,Humid
Lagoa do Makro,South America,Brasil,-5.86292,-35.2098,Infiltration basin,Storm water,Dry sub-humid
Linden ponds,North America,USA,34.154521,-117.399334,Infiltration basin,River water,Semi-arid
Sierra Madre Spreading Grounds,North America,USA,34.165474,-118.040127,Infiltration basin,River water,Semi-arid
Hall-Wentland,North America,USA,45.999006,-118.412346,Surface flooding and ditch-and-furrow,River water,Semi-arid
Gheraiesti,Europe,Romania,46.59933,26.90449,Bank filtration,River water,Humid
Harpers Field,Oceania,Australia,-34.774361,138.729286,Aquifer storage and recovery,River water,Semi-arid
Youlambie Weir (Three Moon Creek),Oceania,Australia,-24.819166,151.096769,Check dam,River water,Dry sub-humid
Kalateh Asad recharge project,Asia,Iran,36.404847,55.625878,Check dam,River water,Semi-arid
Dashin,Asia,China,39.641662,116.169693,Surface flooding and ditch-and-furrow,River water,Semi-arid
L-63N (Taylor Creek) ASR System,North America,USA,27.238903,-80.785901,Aquifer storage and recovery,River water,Humid
Wasilkow,Europe,Poland,53.19352,23.19394,Infiltration basin,River water,Humid
Andritz,Europe,Austria,47.111,15.426,Bank filtration,River water,Humid
Área do Instituto de Pesquisas Hidráulicas - UFRGS - Trincheira 2,South America,Brasil,-30.076102,-51.114595,Trenches,Storm water,Humid
Reijerwaard,Europe,Netherlands,51.88,4.6,Bank filtration,River water,Humid
Cania Dam (Three Moon Creek),Oceania,Australia,-24.650774,150.985074,Check dam,River water,Dry sub-humid
Campo de pozos de Barranca,South America,Costa Rica,9.998702778,-84.69346111,Bank filtration,River water,Humid
Calvinia artificial recharge scheme,Africa,South Africa,-31.464017,19.773245,Aquifer storage and recovery,Lake water,Semi-arid
Xiao Zhen Cun,Asia,China,37.068383,117.694767,Subsurface Dam,River water,Dry sub-humid
Remmerden,Europe,Netherlands,51.97388,5.534663,Bank filtration,River water,Humid
San Gabriel Coastal Spreading Grounds,North America,USA,33.990456,-118.077179,Infiltration basin,Lake water,Semi-arid
Hickory Basin,North America,USA,34.09242,-117.510832,Infiltration basin,Reclaimed wastewater,Semi-arid
Echo Meadows,North America,USA,45.76608,-119.265419,Surface flooding and ditch-and-furrow,River water,Semi-arid
Kotwal Cheruvu,Asia,India,17.124582,78.418538,Check dam,River water,Dry sub-humid
"Ci, Handan",Asia,China,36.344002,114.225621,Aquifer storage using wells,Reclaimed wastewater,Dry sub-humid
Prenzlau I,Europe,Germany,53.301,13.862,Bank filtration,River water,Humid
Bodenheim,Europe,Germany,49.937,8.325,Bank filtration,River water,Humid
Missouri River - Missouri–American Water Company,North America,USA,39.189814,-94.670103,Bank filtration,River water,Humid
Hartfield Park,Oceania,Australia,-31.99489,115.997794,Aquifer storage and recovery,Storm water,Dry sub-humid
Tanggeli Desert,Asia,China,37.585192,105.124609,Infiltration basin,Storm water,Semi-arid
Innovation Farm,Asia,China,47.365331,133.043657,Infiltration basin,Storm water,Dry sub-humid
San Sevaine Flood Control Basins,North America,USA,34.143642,-117.492214,Infiltration basin,Reclaimed wastewater,Semi-arid
s-Gravendeel,Europe,Netherlands,51.78053,4.617949,Bank filtration,River water,Humid
Sedgefield,Africa,South Africa,-34.021103,22.805502,Infiltration basin,Reclaimed wastewater,Semi-arid
Rokugo basin 1,Asia,Japan,39.418056,140.559722,Infiltration basin,River water,Humid
El Rio spreading grounds,North America,USA,34.2449,-119.154675,Infiltration basin,River water,Semi-arid
Chaco Central,South America,Paraguay,-22.333333,-60.0166667,Aquifer storage using wells,Storm water,Humid
NW Umapine site,North America,USA,45.979755,-118.503538,Infiltration basin,River water,Semi-arid
Moulle,Europe,France,50.79,2.17,Infiltration basin,River water,Humid
Murray Avenue,North America,USA,39.925997,-75.026402,Aquifer storage and recovery,River water,Humid
Departamento de Ciências Agrárias UNITAU,South America,Brasil,-7.453025,-44.7798,Rooftop Rainwater Harvesting,Storm water,Humid
Tarim Basin,Asia,China,38.850061,80.840264,Subsurface Dam,River water,Arid
Dinamarca,South America,Brasil,-6.4053,-37.23023,Subsurface Dam,Storm water,Dry sub-humid
Chang'an University,Asia,China,34.231632,108.954279,Aquifer storage and recovery,River water,Dry sub-humid
East Trolley Lane,North America,USA,45.993053,-118.423774,Reverse Drainage,Storm water,Semi-arid
Plaine de Millegrand,Europe,France,43.20966004,2.440985933,Aquifer storage using wells,River water,Humid
Na Grobli,Europe,Poland,51.1045,17.058,Infiltration basin,River water,Humid
N/A,Asia,China,39.641662,116.169693,Surface flooding and ditch-and-furrow,Reclaimed wastewater,Semi-arid
Linkes Tumed-Banne,Asia,China,40.728667,111.515349,Aquifer storage and recovery,Groundwater,Semi-arid
"Minqin, Wuwei",Asia,China,37.909021,102.647167,Infiltration basin,River water,Semi-arid
Santiago Creek: Santiago Basins - Hart Park (3),North America,USA,33.78308,-117.832347,Infiltration basin,River water,Semi-arid
El Paso Water Utilities 3 (EPWU),North America,USA,31.968394,-106.424907,Infiltration basin,Reclaimed wastewater,Semi-arid
Fazenda Caraíba,South America,Brasil,-11.46667,-40.2,Subsurface Dam,River water,Dry sub-humid
Grenade,Europe,France,43.77177108,1.293294114,Infiltration basin,River water,Humid
Chaobai River,Asia,China,40.426251,116.984759,Check dam,River water,Semi-arid
JNU – IIT - Sanjay Van Project – IIT Campus,Asia,India,28.544442,77.189911,Rooftop Rainwater Harvesting,Storm water,Humid
Highlands Ranch ASR Program,North America,USA,39.54179,-104.95322,Aquifer storage and recovery,Lake water,Semi-arid
Zhengzhou,Asia,China,34.834083,113.784243,Infiltration basin,Reclaimed wastewater,Dry sub-humid
Belcaire,Europe,Spain,39.81,-0.21,Aquifer storage and recovery,River water,Semi-arid
Kabashima,Asia,Japan,32.561744,129.783152,Subsurface Dam,Groundwater,Humid
Anspach AR site,North America,USA,45.945574,-118.410467,Reverse Drainage,River water,Semi-arid
Ana Catchment 3,Africa,Kenia,-1.36987,37.96826,Subsurface Dam,River water,Semi-arid
Halstead Diversion well 07143880,North America,USA,38.008083,-97.519249,Bank filtration,River water,Semi-arid
Kraljevo,Europe,Serbia and Montenegro,43.7272,20.6868,Bank filtration,River water,Humid
St. George,North America,USA,37.082515,-113.567102,Infiltration basin,River water,Semi-arid
Trumbull,North America,USA,45.962058,-118.428878,Reverse Drainage,River water,Semi-arid
Baumberg,Europe,Germany,51.17,7.051,Bank filtration,River water,Humid
Rossdale Golf Club,Oceania,Australia,-38.029713,145.1164,Aquifer storage and recovery,Storm water,Humid
Schoonhoven,Europe,Netherlands,51.948,4.854,Bank filtration,River water,Humid
Weißer Bogen,Europe,Germany,50.874,7.037,Bank filtration,River water,Humid
Stateline Project,North America,USA,46.963543,-117.460373,Aquifer storage and recovery,Reclaimed wastewater,Dry sub-humid
N/A,Asia,China,39.703593,116.158776,Subsurface Dam,River water,Semi-arid
Aldinga wastewater storage and recovery scheme,Oceania,Australia,-35.289684,138.48209,Aquifer storage and recovery,Reclaimed wastewater,Semi-arid
Nahal Shiqma,Asia,Israel,31.599901,34.514603,Infiltration basin,Storm water,Semi-arid
Cole's ASR test site 1,North America,Canada,52.143753,-106.475703,Aquifer storage using wells,River water,Semi-arid
Beeckerwerth-Alsum,Europe,Germany,51.47,6.7,Bank filtration,River water,Humid
Iasi,Europe,Romania,47.1569,27.5903,Bank filtration,River water,Humid
Bielany,Europe,Poland,50.042,19.84,Infiltration basin,River water,Humid
Kiindu Dam,Africa,Kenia,-1.449857,38.00249,Subsurface Dam,River water,Semi-arid
Hinds/Hekeao MAR Pilot Project,Oceania,New Zealand,-43.879261,171.61935,Infiltration basin,River water,Humid
Jagsi-Sarfabad shallow,Asia,India,29.276362,76.63632,Aquifer storage and recovery,River water,Humid
Anaheim Lake,North America,USA,33.864873,-117.847346,Infiltration basin,River water,Semi-arid
Fountain Hills,North America,USA,33.606484,-111.72893,Aquifer storage and recovery,Reclaimed wastewater,Semi-arid
Olive Basin,North America,USA,33.848304,-117.841728,Infiltration basin,River water,Semi-arid
Mas-Grenier,Europe,France,43.89139,1.197222,Infiltration basin,River water,Humid
Badhyan,Asia,India,28.976451,75.752161,Aquifer storage and recovery,Storm water,Semi-arid
Locher Rd,North America,USA,46.001784,-118.474153,Infiltration basin,River water,Semi-arid
Edinburgh Park North,Oceania,Australia,-34.710873,138.657301,Aquifer storage and recovery,Storm water,Semi-arid
Koraro-01,Africa,Ethiopia,13.974516,39.410441,Subsurface Dam,Groundwater,Dry sub-humid
Dohne,Europe,Germany,51.426,6.874,Bank filtration,River water,Humid
"Clark County Public Utilities District Building- 27H1,2",North America,USA,45.629749,-122.663473,Aquifer storage and recovery,Groundwater,Humid
Isfara aquifer,Asia,Uzbekistan,40.377012,70.542695,Infiltration basin,River water,Semi-arid
Nallan Pillai Petral,Asia,India,12.190454,79.251187,Subsurface Dam,Groundwater,Dry sub-humid
Raymond Basin,North America,USA,33.848565,-117.908087,Infiltration basin,River water,Semi-arid
Modanetta D,Europe,Italy,45.698,11.523,Aquifer storage using wells,River water,Humid
Donauinsel Nord,Europe,Austria,48.236,16.415,Bank filtration,River water,Humid
Grand Prairie,North America,USA,34.473909,-91.417933,Aquifer storage using wells,River water,Humid
Hansen Spreading Grounds,North America,USA,34.249909,-118.394929,Infiltration basin,Lake water,Semi-arid
Geneuille,Europe,France,47.32335,5.969782,Bank filtration,River water,Humid
Kharkams,Africa,South Africa,-30.36846,17.887575,Aquifer storage and recovery,River water,Arid
Wittlaerer Werth,Europe,Germany,51.297,6.738,Bank filtration,River water,Humid
Prato,Europe,Italy,43.878,11.102,Aquifer storage and recovery,River water,Humid
Qingyang,Asia,China,35.678951,107.670036,Surface flooding and ditch-and-furrow,Storm water,Dry sub-humid
City of Tigard,North America,USA,45.412624,-122.789759,Aquifer storage and recovery,River water,Humid
Janki Devi Memorial College,Asia,India,28.641761,77.191504,Rooftop Rainwater Harvesting,Storm water,Humid
Jinhe well field,Asia,China,34.780507,117.325604,Check dam,River water,Dry sub-humid
Yavne-2,Asia,Israel,31.866523,34.719292,Infiltration basin,Reclaimed wastewater,Semi-arid
Jamia Hamdard University,Asia,India,28.512625,77.248695,Rooftop Rainwater Harvesting,Storm water,Humid
McCarthy Ranch,North America,USA,45.650079,-119.412243,Aquifer storage and recovery,Groundwater,Semi-arid
Haltern,Europe,Germany,51.73,7.204,Infiltration basin,River water,Humid
Monster,Europe,Netherlands,52.03517,4.197303,Infiltration basin,River water,Humid
Nuestra Señora de Fátima,South America,Argentina,-30.35154626,-66.32171631,Aquifer storage using wells,Reclaimed wastewater,Semi-arid
Rolinha,South America,Brasil,-6.33115,-37.20542,Subsurface Dam,Storm water,Dry sub-humid
De Rug,Europe,Netherlands,51.081,5.823,Bank filtration,River water,Humid
Gatehampton,Europe,United Kingdom,51.52498,-1.131592,Bank filtration,River water,Humid
WW Überruhr + WW Horst,Europe,Germany,51.43,7.06,Bank filtration,River water,Humid
Name,South America,Chile,-35.73548532,-72.15531208,Trenches,Storm water,Humid
"Boxing, Binzhou",Asia,China,37.067979,118.301231,Reverse Drainage,River water,Dry sub-humid
Glenore Grove Weir  (Lockyer Valley),Oceania,Australia,-27.518374,152.405378,Check dam,River water,Humid
Hosterwitz,Europe,Germany,51.01,13.85,Infiltration basin,River water,Humid
Olive Grove (Adams Creek),Oceania,Australia,-34.717029,138.685288,Aquifer storage and recovery,Storm water,Semi-arid
Oregonian Bldg. - 3E3,North America,USA,45.514848,-122.681874,Aquifer storage and recovery,Groundwater,Humid
University of Jinan,Asia,China,36.630561,117.020692,Rooftop Rainwater Harvesting,Storm water,Dry sub-humid
"Portland Medical Center - 34N10,11",North America,USA,45.521281,-122.68166,Aquifer storage and recovery,Groundwater,Humid
Fazenda Baixa Verde,South America,Brasil,-24.0413066,-48.97499,Subsurface Dam,River water,Humid
N/A,Asia,China,31.224633,121.479031,Aquifer storage and recovery,Storm water,Humid
Ship Creek,North America,USA,61.229513,-149.674825,Infiltration basin,River water,Humid
Five Coves Basins,North America,USA,33.837888,-117.863603,Infiltration basin,River water,Semi-arid
Manatee Road,North America,USA,26.046285,-81.689853,Aquifer storage and recovery,Reclaimed wastewater,Humid
La Güeya,South America,Argentina,-29.144444,-61.839694,Aquifer storage and recovery,Storm water,Dry sub-humid
Ahuja Farm,Asia,India,28.482658,77.161292,Rooftop Rainwater Harvesting,Storm water,Humid
N/A,Asia,China,36.999577,107.999626,Subsurface Dam,River water,Semi-arid
Mahlenzien,Europe,Germany,52.326,12.461,Bank filtration,River water,Humid
Zhulong River,Asia,China,35.013485,112.784603,Surface flooding and ditch-and-furrow,River water,Dry sub-humid
"Velddriel, Sellik",Europe,Netherlands,51.7627,5.2955,Bank filtration,River water,Humid
AI-Amalih,Asia,Saudi Arabia,25.590003,45.585775,Check dam,River water,Semi-arid
Tex Corp Limited,Asia,India,28.422209,76.993908,Rooftop Rainwater Harvesting,Storm water,Humid
Omaruru Delta (OMDEL),Africa,Namibia,-21.902015,14.513527,Infiltration basin,River water,Arid
City of St Helens,North America,USA,45.857228,-122.814742,Bank filtration,River water,Humid
Santo Domingo,North America,Mexico,21.567778,-100.021111,Check dam,River water,Semi-arid
Nadiyapattu Odai,Asia,India,11.662141,79.406449,Aquifer storage using wells,River water,Humid
Vernouillet,Europe,France,48.98010354,1.973342996,Bank filtration,River water,Humid
291 Farm,Asia,China,46.940808,131.512327,Infiltration basin,Storm water,Dry sub-humid
Gaocheng,Asia,China,38.012931,114.86523,Infiltration basin,River water,Semi-arid
"Anxin, Baoding",Asia,China,38.952347,116.026828,Surface flooding and ditch-and-furrow,Storm water,Semi-arid
Csepel Island,Europe,Hungary,47.29413,18.94318,Bank filtration,River water,Humid
"Jinxiang, Jining",Asia,China,35.062794,116.131964,Check dam,River water,Dry sub-humid
Alice Springs SAT,Oceania,Australia,-23.766975,133.892612,Infiltration basin,Reclaimed wastewater,Semi-arid
Sant ´Alessio,Europe,Italy,43.867103,10.51575,Bank filtration,River water,Humid
Blanes,Europe,Spain,41.67,2.76,Excess Irrigation,Reclaimed wastewater,Humid
EMBRAPA – Campo experimental da Caatinga BS-4,South America,Brasil,-9.069863,-40.328154,Subsurface Dam,River water,Semi-arid
Lagoa do Preá,South America,Brasil,-5.827327,-35.20528,Infiltration basin,Storm water,Dry sub-humid
Hardwald,Europe,Switzerland,47.532,7.699,Infiltration basin,River water,Humid
Stiller Pond,North America,USA,46.052001,-118.468283,Infiltration basin,River water,Semi-arid
San Luís Rio Colorado,North America,Mexico,32.392221,-114.824874,Infiltration basin,Storm water,Arid
Polokwane,Africa,South Africa,-23.863168,29.440344,Channel infiltration/spreading,Reclaimed wastewater,Semi-arid
Zoelen,Europe,Netherlands,51.912,5.402,Aquifer storage and recovery,Groundwater,Humid
North Reservoir – ASR-1 LM-6210,North America,USA,26.710555,-81.8386111,Aquifer storage and recovery,Reclaimed wastewater,Humid
City of St Helens – 4N/1W-5R1,North America,USA,45.857228,-122.814742,Aquifer storage and recovery,River water,Humid
