Site name,Continent,Country,Latitude,Longitude,MAR objective,P-ET
Alcalá La Real,Europe,Spain,37.46,-3.92,no data,233.0533295
Arve,Europe,Switzerland,46.18,6.15,Management of Water Distribution Systems,606.5079956
Prince Albert,Africa,South Africa,-33.222633,22.029932,no data,100.1393356
Caiçara,South America,Brasil,-9.07306,-40.23522,Maximize Natural Storage,101.4586639
City of Pasadena,North America,USA,34.154787,-118.134041,Maximize Natural Storage,60.72733307
Upland Basin,North America,USA,34.097915,-117.694958,no data,59.77133179
North Bend Aquifer ASR,North America,USA,47.497748,-121.788579,no data,1097.702026
"First National Bank, 400 S.W. 6th Ave. Branch, Portland3- 4N 4,15",North America,USA,45.520505,-122.6777,Other Benefits,815.9286499
Northern Cape,Africa,South Africa,-29.5,22,no data,39.55266571
Shiren River,Asia,China,36.11972,120.546267,Physical Aquifer Management,200.5200043
Tihar Jail,Asia,India,28.617181,77.102104,Other Benefits,261.2086792
Northwest Hillsborough County Reclaimed Water ASR Project,North America,USA,28.059608,-82.413342,Maximize Natural Storage,413.2106628
City of Portland,North America,USA,45.525001,-122.661117,Maximize Natural Storage,815.9286499
Longkou,Asia,China,37.676739,120.575455,Maximize Natural Storage,200.5200043
Sítio Serra de Campos Novos,South America,Brasil,-8.936914,-46.1898,Maximize Natural Storage,341.7446594
Plettenberg Bay,Africa,South Africa,-34.060875,23.350715,Maximize Natural Storage,139.915329
Valle de las Palmas,North America,Mexico,32.375639,-116.622267,Physical Aquifer Management,-24.29199982
Santa Rosa ASR,North America,USA,38.447247,-122.7123,no data,478.0566711
Hartfield Park,Oceania,Australia,-31.99489,115.997794,Maximize Natural Storage,135.9806671
Rokugo basin 4,Asia,Japan,39.424167,140.568056,no data,1042.994629
Nainital Lake,Asia,India,29.389253,79.456136,Water Quality Management,522.0373535
Barragem do Mundaú,South America,Brasil,-8.9465,-36.4918,Water Quality Management,352.5693359
Yamagata-shi,Asia,Japan,38.243889,140.360278,no data,1042.994629
Gatton Weir  (Lockyer Valley),Oceania,Australia,-27.560482,152.256897,Maximize Natural Storage,328.697998
Rio Grande wellfield,North America,USA,39.142196,-74.825394,Maximize Natural Storage,639.166687
Ladd Building Co.,North America,USA,45.52921,-122.664035,Other Benefits,815.9286499
EMBRAPA – Campo experimental da Caatinga BS-3,South America,Brasil,-9.067192,-40.327736,Maximize Natural Storage,101.4586639
Wangwu Reservoir,Asia,China,37.532699,120.655437,Physical Aquifer Management,200.5200043
Mini-Anaheim Lake,North America,USA,33.866518,-117.843679,no data,59.77133179
Evanston South,Oceania,Australia,-34.633665,138.715042,Ecological Benefits,12.48933315
Pendleton ASR,North America,USA,45.666479,-118.75714,Physical Aquifer Management,71.99533081
Huangtu Gaoyuan,Asia,China,36.999577,107.999626,Maximize Natural Storage,105.8813324
Whittier Narrows Water Reclamation Plant,North America,USA,34.032992,-118.068758,no data,60.72733307
Delhi Gymkhana Club,Asia,India,28.597954,77.204894,Maximize Natural Storage,261.2086792
Dagu River,Asia,China,37.045044,120.448002,Physical Aquifer Management,200.5200043
Fazenda Várzea Queimada,South America,Brasil,-10.47258,-40.08251,Maximize Natural Storage,7.817333221
N/A,Asia,China,37.585192,105.124609,Physical Aquifer Management,-3.420000076
Jandakot,Oceania,Australia,-32.1038159,115.8747833,no data,135.9806671
Göttwitz,Europe,Germany,51.254,12.918,Water Quality Management,489.3106689
Ossendrecht,Europe,Netherlands,51.395,4.333,Water Quality Management,477.6199951
College Heights Basins,North America,USA,34.10363,-117.696148,no data,59.77133179
Ana Catchment 2,Africa,Kenia,-1.37143,37.98888,Maximize Natural Storage,75.82333374
Schierstein,Europe,Germany,50.04,8.19,Water Quality Management,346.6159973
Rheintal Grundwasserstrom,Europe,Switzerland,47.5303,7.691765,Water Quality Management,583.7360229
Bear Canyon Recharge Demonstration Project,North America,USA,35.138383,-106.557539,Maximize Natural Storage,36.39799881
Yavne-1,Asia,Israel,31.893417,34.723755,Water Quality Management,173.6186676
Yufuhe,Asia,China,36.645926,116.862777,Physical Aquifer Management,153.3359985
Lee County WTP (LC),North America,USA,26.719166,-81.6811111,Maximize Natural Storage,413.2106628
Guntersblum,Europe,Germany,49.795,8.355,Water Quality Management,346.6159973
Campo de pozos de La Bomba de Limón,South America,Costa Rica,9.135663889,-83.06382778,Management of Water Distribution Systems,2027.904663
Caloosahatchee River ASR (CRASR),North America,USA,26.711697,-81.557011,no data,413.2106628
San Gabriel Canyon Spreading Grounds,North America,USA,34.15109,-117.914103,Physical Aquifer Management,60.72733307
Sítio Serrota,South America,Brasil,-6.260875,-37.81138,Maximize Natural Storage,275.5066528
Asian Institute of Technology (AIT),Asia,Thailand,14.081453,100.601654,Physical Aquifer Management,495.9140015
Friendship Farm,Asia,China,46.78169,131.810963,Maximize Natural Storage,164.7306671
Matchaponix Brook,North America,USA,40.317605,-74.360276,no data,639.166687
WW Dollar + WW Hardt,Europe,France,47.749,7.334,no data,583.7360229
Hameerpur (Jabar Sagar),Asia,India,27.21825,76.195665,Maximize Natural Storage,261.2086792
Gordon Road WWTP,Oceania,Australia,-32.5078564,115.7531894,Ecological Benefits,191.7833405
Assentamento Santo Agostinho,South America,Brasil,-5.41557,-37.3746,Maximize Natural Storage,256.8193359
Valley Boulevard Rubber Dam,North America,USA,34.049977,-118.009124,Physical Aquifer Management,60.72733307
Grantham Weir  (Lockyer Valley),Oceania,Australia,-27.575796,152.216674,Maximize Natural Storage,328.697998
Heihe River,Asia,China,35.213283,107.349539,Maximize Natural Storage,117.6320038
"Da Yao Cun, Guangrao Xian",Asia,China,37.108194,118.366194,Physical Aquifer Management,182.8006592
Menashe,Asia,Israel,32.460961,34.919873,Physical Aquifer Management,173.6186676
Perth Groundwater Replenishment Scheme Stage 1,Oceania,Australia,-31.782679,115.776711,Management of Water Distribution Systems,135.9806671
New Friends Club,Asia,India,28.562541,77.266554,Maximize Natural Storage,261.2086792
Royal Bhutanese Embassy,Asia,India,28.586543,77.180794,Maximize Natural Storage,261.2086792
Mogarala area,Asia,India,13.481932,79.043898,Physical Aquifer Management,320.4493408
Caborca,North America,Mexico,30.704088,-112.140627,Maximize Natural Storage,46.2140007
Fazenda Mandassaia,South America,Brasil,-8.65,-41.16667,Maximize Natural Storage,101.4586639
Boynton Beach,North America,USA,26.51377,-80.062819,Maximize Natural Storage,413.2106628
"Xi'an, Yanta",Asia,China,34.226908,108.984018,Physical Aquifer Management,86.19999695
"RRS, Sirsa",Asia,India,29.533176,75.017002,Water Quality Management,187.4593353
Sawpit Spreading Grounds,North America,USA,34.160229,-117.990874,Physical Aquifer Management,60.72733307
Shanghai,Asia,China,31.187937,121.452034,Water Quality Management,399.7593384
Brousse-le-Château,Europe,France,43.99756015,2.625504942,Physical Aquifer Management,365.2739868
Microbacia do Córrego Fundo,South America,Brasil,-7.476338,-47.84705,Maximize Natural Storage,628.9293213
Vessy,Europe,Switzerland,46.187,6.166,Water Quality Management,606.5079956
Lagoa do CTG,South America,Brasil,-5.87475,-35.1882,Physical Aquifer Management,104.8533325
N/A,Asia,China,34.275475,108.815648,Physical Aquifer Management,86.19999695
EPAGRI – Estação Experimental,South America,Brasil,-27.42058,-49.648521,Water Quality Management,785.4373169
Lodhi Garden,Asia,India,28.592926,77.219645,Ecological Benefits,261.2086792
San Gabriel River (Montebello Forebay),North America,USA,33.989036,-118.075617,Physical Aquifer Management,60.72733307
"Shunping, Baoding, Hebei",Asia,China,38.895246,115.259762,Physical Aquifer Management,80.96733093
Tumbleweed Park Recharge Facility,North America,USA,33.272986,-111.828048,no data,42.06733322
"Shenbei, Shenyang",Asia,China,42.154363,123.414125,Water Quality Management,210.5306702
Santa Anita Spreading Grounds,North America,USA,34.166973,-118.021551,Physical Aquifer Management,60.72733307
Carracillo,Europe,Spain,41.31,-4.36,Water Quality Management,276.4819946
Malham,Asia,Saudi Arabia,25.143502,46.240481,Physical Aquifer Management,74.47133636
Windhoek,Africa,Namibia,-22.561459,17.07356,Maximize Natural Storage,50.48733521
Monto Weir (Three Moon Creek),Oceania,Australia,-24.858364,151.10663,Maximize Natural Storage,156.043335
Funxi,Asia,China,34.212734,108.73481,Physical Aquifer Management,86.19999695
Ely Basins,North America,USA,34.034876,-117.613444,no data,59.77133179
Lujiazui,Asia,China,31.224325,121.508677,Physical Aquifer Management,399.7593384
Grisolles,Europe,France,43.82889,1.296667,Water Quality Management,365.2739868
Warner Basin,North America,USA,33.854048,-117.831646,no data,59.77133179
Sulaibiya SU-10,Asia,Kuwait,29.282966,47.816369,no data,34.03066635
Comunidade Riacho Verde (Owner: Sebastião M. de Lima),South America,Brasil,-7.1541,-37.1334,Maximize Natural Storage,176.4686737
Cornedo Vicentino A,Europe,Italy,45.615,11.337,no data,478.7139893
Max Amber Sportsfield/Torrens Valley Sportsfield,Oceania,Australia,-34.869602,138.693423,Ecological Benefits,12.48933315
Bau Noi/Hong Phong,Asia,Vietnam,11.051604,108.312653,Physical Aquifer Management,1343.724609
Rusovce,Europe,Slovakia,48.06225,17.14485,Maximize Natural Storage,316.5213318
Ma Ma Creek Weir  (Lockyer Valley),Oceania,Australia,-27.656814,152.161344,Maximize Natural Storage,328.697998
Tsunekami,Asia,Japan,35.637265,135.820499,Physical Aquifer Management,1042.994629
N/A,Asia,China,38.476994,102.286657,Maximize Natural Storage,21.34000015
Dong Zhu Ying Cun Guangrao Xian,Asia,China,37.039041,118.479667,Physical Aquifer Management,182.8006592
Chesapeake,North America,USA,36.738493,-76.291915,Maximize Natural Storage,466.002655
Khlidia,Africa,Tunesia,36.623334,10.201305,Physical Aquifer Management,142.8813324
Bhaonta (Sankara),Asia,India,27.328641,76.224669,Maximize Natural Storage,261.2086792
Fazenda Catolé de Queimadas - Dona Dora,South America,Brasil,-7.34714,-35.887999,Maximize Natural Storage,176.4686737
Assentamento Pedro Henrique - BS-3 (Owner: Fancisco Belchior dos Santos),South America,Brasil,-6.78083,-35.75722,Maximize Natural Storage,104.8533325
Aberdeen,North America,USA,40.424025,-74.218067,no data,639.166687
Zhabei Qu,Asia,China,31.241862,121.458563,Physical Aquifer Management,399.7593384
Hassayampa Recharge Facility,North America,USA,33.935532,-112.698988,no data,21.87199974
Fazenda Queimada dos Loiolas,South America,Brasil,-24.0447091,-48.916656,Maximize Natural Storage,503.1633301
Santiago Basins,North America,USA,33.806726,-117.806409,no data,7.772666454
"Anxin, Baoding",Asia,China,38.960491,116.033721,Maximize Natural Storage,80.96733093
Kentville Weir  (Lockyer Valley),Oceania,Australia,-27.492619,152.437705,Maximize Natural Storage,328.697998
South of Lyon,Europe,France,45.7684,4.8356,Water Quality Management,606.5079956
Pine Flat,North America,USA,42.236392,-121.564956,Maximize Natural Storage,326.5180054
Gracia-Morenita,Europe,Spain,42.46,-8.09,no data,585.1066895
Área do Instituto de Pesquisas Hidráulicas - UFRGS - Trincheira 1,South America,Brasil,-30.076102,-51.114595,Physical Aquifer Management,785.4373169
Mira Model School,Asia,India,28.630862,77.093942,Maximize Natural Storage,261.2086792
"Xiongxian, Baoding",Asia,China,36.630317,117.02111,Physical Aquifer Management,153.3359985
Sanjianpu,Asia,China,38.903652,121.286811,Physical Aquifer Management,159.2233276
Little Para Dam,Oceania,Australia,-34.7537319,138.7206319,Maximize Natural Storage,12.48933315
Northwest University,Asia,China,34.148276,108.87438,Physical Aquifer Management,86.19999695
"Xinshi, Baoding",Asia,China,38.94355,115.373177,Water Quality Management,80.96733093
Munno Para West,Oceania,Australia,-34.66836,138.674906,Ecological Benefits,12.48933315
Madonetta E,Europe,Italy,45.698,11.523,no data,478.7139893
Höttinger Au,Europe,Austria,47.269,11.404,Water Quality Management,839.7553101
Buell-Red Prairie AR,North America,USA,45.001552,-123.5132,Physical Aquifer Management,815.9286499
7th and 8th Street Basins,North America,USA,34.089705,-117.632777,no data,59.77133179
Ssangcheon,Asia,Korea,36.638522,127.346757,no data,748.0626831
San Gorgonio Pass basins,North America,USA,33.978323,-116.972362,no data,59.77133179
Eaton Wash Spreading Grounds,North America,USA,34.162916,-118.089032,Physical Aquifer Management,60.72733307
La Ligua,South America,Chile,-32.4499018,-71.2325958,Maximize Natural Storage,65.58000183
Peumo Valley,South America,Chile,-34.05,-71.3,Other Benefits,309.2426758
N/A,Asia,China,37.909021,102.647167,Physical Aquifer Management,41.39866638
Superstition Mountains Recharge Project (SMRP),North America,USA,33.226945,-111.500925,Maximize Natural Storage,42.06733322
Soreq-2,Asia,Israel,31.954099,34.76879,Water Quality Management,173.6186676
3 Ba Li Zhuang Lu Chaoyang Qu,Asia,China,39.913323,116.494904,Maximize Natural Storage,81.98867035
Jordan Valley Water District,North America,USA,40.68985,-111.834448,Physical Aquifer Management,10.93466663
Irrigation Science and Technology,Asia,China,39.076649,117.213038,Maximize Natural Storage,103.5666656
Kano River irrigation Project (KRIP),Africa,Nigeria,12.00012,8.51672,Maximize Natural Storage,421.8340149
Lopez Spreading Grounds,North America,USA,34.298245,-118.414121,Physical Aquifer Management,60.72733307
Emek Hefer Region,Asia,Israel,32.375216,34.90981,Physical Aquifer Management,173.6186676
Tanuf,Asia,Oman,23.058707,57.469183,Physical Aquifer Management,-16.52066612
Callide Dam (Callide Valley),Oceania,Australia,-24.366833,150.613771,Maximize Natural Storage,158.9266663
Jhiri (Amli),Asia,India,27.255127,76.219031,Maximize Natural Storage,261.2086792
Williston,Africa,South Africa,-31.624083,21.216791,Maximize Natural Storage,39.55266571
Appoigny,Europe,France,47.87689825,3.527624844,Physical Aquifer Management,353.5666809
Flammerans,Europe,France,47.2303313,5.447404674,no data,606.5079956
Llohué,South America,Chile,-36.30344636,-72.46431222,Ecological Benefits,505.7000122
Granite Reef Underground Storage Project (GRUSP),North America,USA,33.491674,-111.777168,Maximize Natural Storage,53.51599884
Mancha Real,Europe,Spain,37.79,-3.61,Maximize Natural Storage,233.0533295
"Tacoma Public Utilities Building – 13A1, B1",North America,USA,47.227693,-122.485958,Other Benefits,1097.702026
Torgau-Ost,Europe,Germany,51.554,13,Water Quality Management,489.3106689
Foothill Municipal Water District,North America,USA,34.455083,-119.733806,no data,60.72733307
Nardò,Europe,Italy,40.176,18.028,Physical Aquifer Management,239.9693298
La Mitidja Big Bag,Africa,Algeria,36.538316,3.061936,no data,231.8580017
Fakhrabad,Asia,Iran,31.635948,54.345453,Maximize Natural Storage,60.32466507
"West Coast Telephone Co. building – 31A1,A2",North America,USA,47.961856,-122.221574,Other Benefits,1097.702026
City of Lincoln – collector wells,North America,USA,41.056019,-96.321379,no data,66.26667023
Shifosi,Asia,China,42.147266,123.343543,Maximize Natural Storage,210.5306702
"Jinshui, Zhengzhou",Asia,China,34.82362,113.705344,Water Quality Management,147.5053406
Springfield,North America,USA,44.024614,-123.02081,Physical Aquifer Management,815.9286499
Nong Taphan,Asia,Thailand,12.753379,101.258063,no data,1205.890625
Monteccio Precalcino,Europe,Italy,45.698,11.523,no data,478.7139893
City of Walla Walla,North America,USA,46.061742,-118.346772,Maximize Natural Storage,71.99533081
Branford Spreading Basin,North America,USA,34.230428,-118.415493,Physical Aquifer Management,60.72733307
IEUA RP3 Ponds,North America,USA,34.044332,-117.475568,no data,59.77133179
Bacia 1: Rod. Geraldo Silva Nascimento – Instituto Federal Goiano,South America,Brasil,-17.495,-48.2269,Physical Aquifer Management,584.2266846
Satsuma,Oceania,Australia,-34.781838,138.717997,Management of Water Distribution Systems,12.48933315
Shougang,Asia,China,40.02154,116.264289,Maximize Natural Storage,81.98867035
Unity Park/Pooraka,Oceania,Australia,-34.87985,138.66977,Ecological Benefits,12.48933315
Madison Farms,North America,USA,45.712723,-119.359432,Physical Aquifer Management,71.99533081
City of Dallas,North America,USA,44.919471,-123.338634,Maximize Natural Storage,815.9286499
Wanglanzhuang,Asia,China,39.053573,117.191555,Maximize Natural Storage,103.5666656
Sedgwick Recharge System,North America,USA,37.883601,-97.481024,Physical Aquifer Management,121.1046677
Duck Lake recharge,North America,USA,48.454911,-119.538675,Maximize Natural Storage,132.7333374
Kalinkovo,Europe,Slovakia,48.0611,17.25248,Maximize Natural Storage,207.0740051
Live Oak Spreading Grounds,North America,USA,34.121945,-117.745374,Physical Aquifer Management,59.77133179
Torreele/St-Andre ́,Europe,Belgium,50.69744,5.753059,Water Quality Management,477.6199951
"Tacoma Savings & Loan Association Building – 4D1,2",North America,USA,47.237521,-122.432237,Other Benefits,1097.702026
Les Ansereuilles,Europe,France,50.557343,2.94616,Water Quality Management,477.6199951
Richland recharge basins,North America,USA,46.255101,-119.264761,no data,179.7433319
Sítio Fazenda Lagoa Comprida,South America,Brasil,-7.9,-40.25,Maximize Natural Storage,168.0966644
Fazenda Nossa Senhora do Rosário,South America,Brasil,-8.403055,-37.815,Maximize Natural Storage,185.2819977
Taihe Reservoir,Asia,China,36.519783,118.125446,Physical Aquifer Management,166.4033356
Saloppe,Europe,Germany,51.065,13.791,Water Quality Management,489.3106689
San Dimas Canyon Spreading Grounds,North America,USA,34.129229,-117.787097,Physical Aquifer Management,59.77133179
Casilla Valverde,Europe,Spain,40.53334,-3.696148,Management of Water Distribution Systems,258.6533203
Sítio Fazenda Pitombeira,South America,Brasil,-7.57382,-40.25341,Maximize Natural Storage,168.0966644
El Señorío,Europe,Spain,39.49,-4.96,Physical Aquifer Management,195.9100037
Mondragon,Europe,France,44.23826135,4.713302401,Water Quality Management,606.5079956
San Carlos Estates ASR System,North America,USA,26.389166,-81.7736111,no data,413.2106628
Hidango,South America,Chile,-34.10332595,-71.83023593,Ecological Benefits,526.5380249
Weinhübel,Europe,Germany,51.156,14.986,Water Quality Management,516.5040283
Flins,Europe,France,48.98248,1.860166,Water Quality Management,353.5666809
Kabudrahang,Asia,Iran,35.207186,48.724458,no data,142.1399994
Padipatlabayalu area,Asia,India,13.519922,79.020965,Maximize Natural Storage,320.4493408
Sítio Várzea Comprida,South America,Brasil,-24.047689,-48.870614,Maximize Natural Storage,503.1633301
Castle Pines,North America,USA,39.468491,-104.89332,no data,66.26667023
Bay Park Wastewater Treatment Plant,North America,USA,40.632986,-73.664929,no data,877.8033447
BS-4,South America,Brasil,-6.068088,-37.32788,Maximize Natural Storage,256.8193359
Hardhof,Europe,Switzerland,47.401,8.48,Water Quality Management,936.0553589
Birstal,Europe,Switzerland,47.493,7.591,no data,583.7360229
Biarjomand recharge project,Asia,Iran,36.076362,55.641625,Physical Aquifer Management,108.0546646
Belgrade,Europe,Serbia and Montenegro,44.84321,20.45654,Water Quality Management,299.5826721
Airport Shanghai,Asia,China,31.154511,121.804596,Maximize Natural Storage,380.0379944
Sand Hollow Reservoir,North America,USA,37.11278,-113.374061,Physical Aquifer Management,59.20199966
Yavne-3,Asia,Israel,31.853911,34.713885,Water Quality Management,173.6186676
Farm,Asia,China,47.588685,133.51825,Maximize Natural Storage,280.5313416
Muttenzer Hard,Europe,Switzerland,47.532,7.7,Water Quality Management,583.7360229
La atarjea,South America,Peru,-12.041335,-77.014331,Physical Aquifer Management,152.2146606
Paradise Run ASR System,North America,USA,27.21813,-80.960666,Ecological Benefits,413.2106628
Petersaue + WW Eich,Europe,Germany,50.01,8.264,no data,346.6159973
Luohe ASR,Asia,China,34.669067,112.479196,Maximize Natural Storage,147.5053406
Delray Beach,North America,USA,26.466666,-80.1,no data,413.2106628
Ordos Plateau,Asia,China,40.073906,109.80943,Maximize Natural Storage,56.19466782
Camp Peary,North America,USA,37.309114,-76.644654,no data,466.002655
Barragem subterrânea do Rio Palhano,South America,Brasil,-4.91667,-38.5167,Maximize Natural Storage,190.2100067
Schaffhausen,Europe,Switzerland,47.693,8.63,no data,936.0553589
N/A,Asia,China,40.073906,109.80943,Physical Aquifer Management,56.19466782
river Guadalquivir floodplain,Europe,Spain,37.04,-6.18,no data,233.0533295
Camarillo,North America,USA,34.216016,-119.029333,no data,60.72733307
Conceição (Barragem Comunitária Manoel Cândido Sobrinho),South America,Brasil,-6.81102,-49.270978,Maximize Natural Storage,747.1099854
Beenyup/Craigie Groundwater Replenishment Trial,Oceania,Australia,-31.7772582,115.7780548,Ecological Benefits,135.9806671
Lower Santa Cruz River Managed Recharge Project – LSCRMRP,North America,USA,32.418597,-111.206253,Maximize Natural Storage,42.61800003
Mariposa Water Reclamation Facility Surface Infiltration Gallery,North America,USA,35.372068,-106.663641,no data,36.39799881
Kiawah Island Utility,North America,USA,32.614431,-80.07201,Maximize Natural Storage,335.8733215
Kale Khosk,Asia,Iran,36.928119,55.490798,Management of Water Distribution Systems,93.90799713
Tummalur Chevaru,Asia,India,17.15206,78.45741,Physical Aquifer Management,256.7446594
Nizamuddin East Colony,Asia,India,28.589929,77.250827,Maximize Natural Storage,261.2086792
Kiindu Dam 4,Africa,Kenia,-1.45665,38.00079,Maximize Natural Storage,75.82333374
Crépieux-Charmy,Europe,France,45.797,4.905,Maximize Natural Storage,606.5079956
Miller Basin,North America,USA,33.864805,-117.856058,Other Benefits,60.72733307
Eaton Spreading Basin,North America,USA,34.123581,-118.081439,Physical Aquifer Management,60.72733307
Shanghai,Asia,China,31.238924,121.453504,Physical Aquifer Management,399.7593384
Fazenda Queimadas,South America,Brasil,-7.347735,-35.872607,Maximize Natural Storage,176.4686737
Fazenda Rosário,South America,Brasil,-10.11667,-39.0667,Maximize Natural Storage,0.785333335
Dyal Water Treatment Plant,North America,USA,28.389625,-80.940653,no data,331.9326782
Mesa Northwest Water Reclamation Plant (NWWRP),North America,USA,33.42888,-111.678445,no data,53.51599884
Someren DIZON,Europe,Netherlands,51.385,5.712,Water Quality Management,477.6199951
Praski 'Gruba Kaska',Europe,Poland,52.2238,21.0623,Water Quality Management,581.2173462
Tennet Pond Well field,North America,USA,40.425598,-74.335355,no data,639.166687
Morroa,South America,Colombia,9.332193,-75.307733,Physical Aquifer Management,1633.281372
Devonshire,North America,USA,39.851481,-74.954357,no data,639.166687
Siebeneichen,Europe,Germany,51.149,13.485,Water Quality Management,489.3106689
Kingswood Golf Club,Oceania,Australia,-37.9834735,145.118597,Maximize Natural Storage,235.6719971
Jinan,Asia,China,36.611064,116.962778,Physical Aquifer Management,153.3359985
Tolkewitz,Europe,Germany,51.034,13.824,Water Quality Management,489.3106689
Dagu River,Asia,China,39.829667,116.248785,Physical Aquifer Management,81.98867035
Arapuá,South America,Brasil,-6.34196,-37.21473,Maximize Natural Storage,275.5066528
University of Jinan,Asia,China,36.616178,116.965843,Physical Aquifer Management,153.3359985
"Cokery Lane, ASR well 11 (Monroe North)",North America,USA,39.66401,-74.95602,no data,639.166687
Indira Gandhi International Airport,Asia,India,28.558582,77.087112,Physical Aquifer Management,261.2086792
José Brasilino Coelho,South America,Brasil,-11.46667,-40.7,Maximize Natural Storage,7.817333221
Balsamand Regional Research Station,Asia,India,29.070696,75.490966,no data,100.7853317
BS-3,South America,Brasil,-7.068088,-38.32788,Maximize Natural Storage,275.5066528
Solandra,Oceania,Australia,-34.82274,138.686308,Management of Water Distribution Systems,12.48933315
Morroa,South America,Colombia,9.332193,-75.307733,Physical Aquifer Management,1633.281372
Ford Foundation,Asia,India,28.592755,77.22261,Maximize Natural Storage,261.2086792
Ferraro Quarry,Europe,Italy,45.67428,11.51734,Other Benefits,478.7139893
Kiindu Dam 5,Africa,Kenia,-1.45557,38.00053,Maximize Natural Storage,75.82333374
Las Vegas Valley well field,North America,USA,36.078198,-115.252769,Maximize Natural Storage,21.22333336
"Guangrao, Dongying",Asia,China,37.086911,118.484859,Physical Aquifer Management,182.8006592
Shenbagathope,Asia,India,12.631261,79.056774,no data,320.4493408
Central Avra Valley Storage and Recovery Project (CAVSARP),North America,USA,32.238059,-111.238615,Physical Aquifer Management,42.61800003
Udagamandalam (früher: Ootacamund),Asia,India,11.410759,76.699497,no data,487.2166748
Mulgowie Weir  (Lockyer Valley),Oceania,Australia,-27.753397,152.3724,Maximize Natural Storage,328.697998
Cochrane Park Rehabilitation Project,North America,USA,46.937199,-122.610175,Physical Aquifer Management,1097.702026
Daryan Chai,Asia,Iran,38.191138,45.604982,no data,161.0386658
La Cabaña bis,Europe,Spain,40.419288,-3.829101,Management of Water Distribution Systems,258.6533203
Tampa-Rome Avenue Park (TRAP) ASR,North America,USA,28.007244,-82.479783,no data,413.2106628
Marco Lakes – Expanded – ASR 2,North America,USA,26.065555,-81.69333333,Maximize Natural Storage,413.2106628
El Paso Water Utilities 2 (EPWU),North America,USA,31.940272,-106.364521,Maximize Natural Storage,36.39799881
City of Oxnard,North America,USA,34.204259,-119.177432,no data,60.72733307
Walnut Spreading Basin,North America,USA,34.074118,-117.874651,Physical Aquifer Management,60.72733307
Ringdijk,Europe,Netherlands,51.82,4.659,Water Quality Management,477.6199951
"Jinxiang, Jining",Asia,China,34.939029,116.241001,Physical Aquifer Management,301.4266663
BS-1,South America,Brasil,-9.068,-40.328,Maximize Natural Storage,101.4586639
Guadix,Europe,Spain,37.3,-3.14,Maximize Natural Storage,233.0533295
Indian Spinal Injuries Centre,Asia,India,28.532686,77.141672,Maximize Natural Storage,261.2086792
Yavne-4,Asia,Israel,31.84786,34.70719,Water Quality Management,173.6186676
Fazenda Folha Verde,South America,Brasil,-10.76667,-40.05,Maximize Natural Storage,7.817333221
"Columbia River High School – 10H1,2",North America,USA,45.693975,-122.677893,Other Benefits,841.6246948
Kumbhej,Asia,India,18.311588,75.174658,Maximize Natural Storage,547.0653076
Valle de Toluca,North America,Mexico,19.2826098,-99.6556653,Physical Aquifer Management,224.7373352
Sítio Almeida,South America,Brasil,-7.13384,-35.90199,Maximize Natural Storage,176.4686737
Ban Nong Na (Nong Kula) 1,Asia,Thailand,16.646433,99.999297,Physical Aquifer Management,495.9140015
Kolff,Europe,Netherlands,51.829,5.249,Water Quality Management,477.6199951
"Sindos, Giannitsa Plain",Europe,Greece,40.67,22.8,Water Quality Management,82.94799805
Clarendon Dam (Lockyer Valley),Oceania,Australia,-27.4975507,152.3359946,Maximize Natural Storage,328.697998
Cubeta de Santiuste de San Juan Bautista,Europe,Spain,41.08,-4.57,Other Benefits,276.4819946
Huangshuihe Underground dam,Asia,China,37.740275,120.522914,Physical Aquifer Management,200.5200043
Aguascalientes,North America,Mexico,21.890999,-102.293428,Maximize Natural Storage,127.3146667
Dordrecht,Europe,Netherlands,51.8188,4.665756,Water Quality Management,477.6199951
Nitata (Bhoja Kala),Asia,India,27.140253,76.201294,Maximize Natural Storage,261.2086792
Salem,North America,USA,44.888739,-123.037606,Maximize Natural Storage,815.9286499
Hillsboro ASR System (HASR),North America,USA,26.355307,-80.295232,Ecological Benefits,413.2106628
Valle de Santiago/ Río del Maipo,South America,Chile,-33.45,-70.666667,Maximize Natural Storage,309.2426758
Universidade Federal de São Carlos (UFSCar),South America,Brasil,-21.978339,-47.8805,Physical Aquifer Management,504.9293213
Lake Duthernal,North America,USA,40.40359,-74.370753,no data,639.166687
EMBRAPA – Campo experimental da Caatinga BS-2,South America,Brasil,-9.068088,-40.32788,Maximize Natural Storage,101.4586639
"Haidian, Peking",Asia,China,39.966394,116.319983,Maximize Natural Storage,81.98867035
Capdenac-Gare,Europe,France,44.582,2.082,Water Quality Management,365.2739868
Foissac,Europe,France,44.51086704,2.00351198,Physical Aquifer Management,365.2739868
Muklan,Asia,India,29.068497,75.659481,Water Quality Management,100.7853317
Heel,Europe,Netherlands,51.1886,5.881119,Water Quality Management,477.6199951
Shigaya well field C-105,Asia,Kuwait,29.102865,47.246907,no data,34.03066635
East Meadow – wells,North America,USA,40.711222,-73.559328,Physical Aquifer Management,877.8033447
Tongzhou,Asia,China,40.1139,116.713155,Maximize Natural Storage,81.98867035
La Mitidja Basins,Africa,Algeria,36.520013,3.065827,no data,231.8580017
Corkscrew – Expanded – 5 ASR wells (ASR-1 to ASR-5),North America,USA,26.46339,-81.704603,no data,413.2106628
WW Flehe + WW Staad + WW Holthausen,Europe,Germany,51.295,6.73,Water Quality Management,477.6199951
Xi'an University of Science and Technology,Asia,China,34.226901,108.984051,Physical Aquifer Management,86.19999695
Sar-chahan,Asia,Iran,28.061395,55.877645,Maximize Natural Storage,84.97200012
Tonami (Yasukawa),Asia,Japan,36.625676,137.004001,Maximize Natural Storage,1042.994629
Corkscrew – 2 ASR wells (ASR-1 LM-3982; ASR-2 LM-4267),North America,USA,26.46339,-81.704603,no data,413.2106628
Brigham City,North America,USA,41.50756,-112.031203,no data,10.93466663
Fairbairn Dam,Oceania,Australia,-23.6945582,147.9385056,Maximize Natural Storage,166.4779968
Thompson Creek Spreading Grounds,North America,USA,34.13933,-117.710946,Physical Aquifer Management,59.77133179
Kaifeng,Asia,China,34.790017,114.275198,Physical Aquifer Management,147.5053406
Valle Aconcagua Dren las Vegas,South America,Chile,-32.83676027,-71.01150513,Maximize Natural Storage,309.2426758
"Defence Colony, Block C 486",Asia,India,28.568671,77.229407,Maximize Natural Storage,261.2086792
Nieuwe Marktstraat,Europe,Netherlands,51.847,5.855,Water Quality Management,477.6199951
Chikhalgaon,Asia,India,18.565496,73.576591,Maximize Natural Storage,547.0653076
"Medical-Dental Bldg. - 4A2,3",North America,USA,45.518723,-122.684149,Other Benefits,815.9286499
Varamin,Asia,Iran,35.399904,51.733348,no data,142.1399994
Gaobeidian WWTP,Asia,China,39.895632,116.526057,Water Quality Management,81.98867035
Aquífero Cauê – Área de influência Apolo,South America,Brasil,-7.78,-63.6,Maximize Natural Storage,923.3813477
N/A,Asia,China,34.186181,111.268567,Maximize Natural Storage,147.5053406
Charles M. Bolton well field,North America,USA,39.318151,-84.620627,no data,579.1306763
Ben Sergao,Africa,Morocco,30.333874,-9.596897,Water Quality Management,55.78466797
Oregonian Bldg. - 3E2,North America,USA,45.514848,-122.681874,Other Benefits,815.9286499
Bangpoon,Asia,Thailand,13.999498,100.573651,Other Benefits,535.7373047
Bazley Weir (Three Moon Creek),Oceania,Australia,-24.893695,151.123261,Maximize Natural Storage,156.043335
5 Wang Zhuang Lu,Asia,China,39.99876,116.338755,Maximize Natural Storage,81.98867035
Jeffara Plain,Africa,Tunisia,33.423801,10.36589,no data,-32.13000107
Ica-Villacuri-Lanchas,South America,Peru,-14.049871,-75.72967,Other Benefits,152.2146606
Kitui District,Africa,Kenia,-1.46194,38.00394,Maximize Natural Storage,75.82333374
Fazenda Belmonte,South America,Brasil,-24.0493718,-48.883994,Maximize Natural Storage,503.1633301
Sangapur,Asia,India,17.821119,78.658174,no data,392.6966553
Baker City,North America,USA,44.766666,-117.858341,Maximize Natural Storage,95.03666687
"Equitable Bldg. – 34N3,4,5",North America,USA,45.520576,-122.67799,Other Benefits,815.9286499
Kinchant Dam,Oceania,Australia,-21.1971234,148.893793,Maximize Natural Storage,388.1579895
Namsong,Asia,Korea,34.57321,126.912159,no data,748.0626831
Barrett AR site,North America,USA,45.947697,-118.421937,Physical Aquifer Management,71.99533081
CE Caatinga BS IV,South America,Brasil,-6.803995,-37.959114,Maximize Natural Storage,275.5066528
Wabash River - Indiana–American Water Company,North America,USA,39.476635,-87.418028,no data,578.1166382
The Dalles,North America,USA,45.597531,-121.181414,Physical Aquifer Management,515.8186646
Sri Aurobindo Ashram,Asia,India,28.539627,77.199708,no data,261.2086792
Deep run lagoon,North America,USA,40.385622,-74.309219,no data,639.166687
Zhaoyuan,Asia,China,37.380946,120.345108,Physical Aquifer Management,200.5200043
river Oja,Europe,Spain,42.57,-2.91,no data,271.9433289
Declez Basin,North America,USA,34.031898,-117.500702,no data,59.77133179
Gully Winds,Oceania,Australia,-34.568604,138.7540464,Maximize Natural Storage,12.48933315
Sur 2,Asia,Oman,22.461952,59.338049,Physical Aquifer Management,-16.52066612
Rayal Cheruvu area,Asia,India,13.5078,79.375606,Maximize Natural Storage,311.1099854
Xi'an,Asia,China,34.180459,108.92807,Physical Aquifer Management,86.19999695
City of Beaverton ASR Project,North America,USA,45.463481,-122.815834,Maximize Natural Storage,815.9286499
Sítio Estação Ecológica UFMG,South America,Brasil,-19.88307,-43.975012,Physical Aquifer Management,408.0066528
Shuanghuayuan Community,Asia,China,39.897832,116.447768,Other Benefits,81.98867035
Ixtapaluca (Parque Ejidal los Depósitos),North America,Mexico,19.324525,-98.843104,Maximize Natural Storage,181.1126709
Lalpura (Koda Wala),Asia,India,27.264041,76.163959,Maximize Natural Storage,261.2086792
Fazenda Baixa Verde,South America,Brasil,-8.916656,-44.7091,Maximize Natural Storage,220.5833282
Böckinger Wiesen,Europe,Germany,49.129,9.165,Water Quality Management,491.6373291
Blagnac,Europe,France,43.63602113,1.389836355,Physical Aquifer Management,365.2739868
Warruwi,Oceania,Australia,-11.662803,133.377581,Maximize Natural Storage,709.1613159
Seminole-Brighton,North America,USA,27.078492,-81.118072,no data,413.2106628
Wohushan Reservoir,Asia,China,36.490536,116.960339,Physical Aquifer Management,147.5053406
Achiras del Gato,South America,Argentina,-31.4062,-64.1803,Management of Water Distribution Systems,125.8533325
Oakes - Large Recharge Test Basin,North America,USA,46.126103,-98.094266,no data,165.2466736
Samorin,Europe,Slovakia,48.03218,17.31445,Maximize Natural Storage,207.0740051
Oakes – recharge test 1 & 2,North America,USA,46.126103,-98.094266,no data,165.2466736
HuaiHai Lu DongDuan,Asia,China,31.224633,121.479031,Physical Aquifer Management,399.7593384
Hermanus,Africa,South Africa,-34.418697,19.234465,Maximize Natural Storage,202.9900055
Fazenda Rompe,South America,Brasil,-11.46667,-40.2333,Maximize Natural Storage,7.817333221
Neckaraue,Europe,Germany,48.693,9.118,no data,491.6373291
"Bayizhen,",Asia,China,41.618709,123.297754,Maximize Natural Storage,316.8080139
Guangrao Xian,Asia,China,37.034389,118.435146,Physical Aquifer Management,182.8006592
Sayreville Ponds 1 & 2,North America,USA,40.437961,-74.335887,Physical Aquifer Management,639.166687
Louisville Riverbank Filtration,North America,USA,38.35937,-85.62856,no data,579.1306763
Edwards Aquifer Authority Recharge Program,North America,USA,29.468326,-98.516913,Maximize Natural Storage,241.4633331
CE Caatinga BS II,South America,Brasil,-7.803995,-38.959114,Maximize Natural Storage,185.2819977
City of North Las Vegas,North America,USA,36.244993,-115.110595,no data,59.20199966
Mulgildie Weir (Three Moon Creek),Oceania,Australia,-25.0189,151.092984,Maximize Natural Storage,156.043335
N/A,Asia,China,40.073906,109.80943,no data,56.19466782
Carpendale Weir  (Lockyer Valley),Oceania,Australia,-27.571747,152.156704,Maximize Natural Storage,328.697998
Southern Avra Valley Storage and Recovery Project (SAVSARP),North America,USA,32.176115,-111.224246,Physical Aquifer Management,42.61800003
Sokh aquifer,Asia,Uzbekistan,40.3106,71.032182,Maximize Natural Storage,251.1433258
Oued Besbes,Africa,Algeria,34.900454,5.756197,no data,54.51933289
ETE Ponta Negra,South America,Brasil,-5.898202,-35.178925,Management of Water Distribution Systems,104.8533325
Etiwanda Spreading Area (Joint Use of Etiwanda Debris Basin),North America,USA,34.152802,-117.508836,no data,59.77133179
Sítio Tanquinho,South America,Brasil,-25.078805,-49.270172,Maximize Natural Storage,785.4373169
N/A,Asia,China,31.187215,121.361352,Maximize Natural Storage,399.7593384
Kale Zardabe,Asia,Iran,36.900281,55.474394,Management of Water Distribution Systems,93.90799713
Toushka Khoure,Africa,Egypt,22.4222222,31.62777777,Maximize Natural Storage,-4.159333229
Victor Valley Water District,North America,USA,34.529969,-117.296367,no data,50.83466721
Xi'an Engineering Technology College,Asia,China,34.251779,108.993197,Physical Aquifer Management,86.19999695
Jianye,Asia,China,32.031431,118.706239,Physical Aquifer Management,640.8866577
Los Sotillos,Europe,Spain,36.84,-5.83,Water Quality Management,171.4080048
Mirrabooka,Oceania,Australia,-31.8456061,115.8444068,Ecological Benefits,135.9806671
Sant Vicenç dels Horts,Europe,Spain,43.38,2.02,Maximize Natural Storage,365.2739868
Michael Okpara University of Agriculture,Africa,Nigeria,5.480602,7.545783,Physical Aquifer Management,1467.77002
Dongling,Asia,China,41.713939,123.454993,Maximize Natural Storage,316.8080139
Área da Agrishow,South America,Brasil,-9.803995,-40.959114,Maximize Natural Storage,25.61733246
Stammheim Nord / Süd,Europe,Germany,48.844,9.151,no data,491.6373291
Sítio Parque Lagoa do Nado (1 e 2),South America,Brasil,-19.84175,-43.956758,Physical Aquifer Management,408.0066528
Lagoa de Infiltração Cidade Jardim,South America,Brasil,-5.846633,-35.202974,Physical Aquifer Management,104.8533325
Wohler Riverbank Filtration site,North America,USA,38.51045,-122.88234,no data,478.0566711
Sliedrecht,Europe,Netherlands,51.825,4.773,Water Quality Management,477.6199951
Avis Weir (Three Moon Creek),Oceania,Australia,-24.979351,151.123473,Maximize Natural Storage,156.043335
Bonneville Power Administration,North America,USA,47.922272,-122.097433,Other Benefits,1097.702026
City of Yakima,North America,USA,46.599605,-120.526976,Maximize Natural Storage,179.7433319
Ujecie Polnoc,Europe,Poland,52.23,21.01,Water Quality Management,581.2173462
Garzweiler,Europe,Germany,51.17,6.44,Ecological benefits,477.6199951
Shanghai NO.21 cotton mill,Asia,China,31.253066,121.523593,Maximize Natural Storage,399.7593384
Nuestra Señora de Fátima,South America,Argentina,-30.35154626,-66.32171631,Other Benefits,-12.13066673
Brenta Ramp,Europe,Italy,45.7214,11.6934,Maximize Natural Storage,478.7139893
Pima Mine Road Recharge Project (PMRRP),North America,USA,32.016369,-110.958278,Maximize Natural Storage,42.61800003
Wang He Zhuang Zi Cun,Asia,China,37.241307,120.172658,Physical Aquifer Management,200.5200043
Budhshelly,Asia,India,28.811682,75.578256,Water Quality Management,100.7853317
Diamond Creek well,North America,USA,38.805949,-121.335994,Maximize Natural Storage,416.5939941
Scottsdale Water Campus,North America,USA,33.659395,-111.892772,Physical Aquifer Management,53.51599884
Sítio Santo Antônio – Distrito de Capim,South America,Brasil,-9.8731,-40.23717,Maximize Natural Storage,101.4586639
Oakes – Small Recharge Test Basin,North America,USA,46.125,-98.093011,no data,165.2466736
Balisha River,Asia,China,40.426251,116.984759,Physical Aquifer Management,81.98867035
East Meadow – basins,North America,USA,40.711222,-73.559328,Physical Aquifer Management,877.8033447
Damascus University Campus,Asia,Syria,33.511274,36.290802,Maximize Natural Storage,38.87133408
Darnakambala area,Asia,India,13.545506,79.304971,Physical Aquifer Management,311.1099854
Shijiazhuang,Asia,China,38.140566,114.512185,no data,101.0559998
Soukra,Africa,Tunisia,36.883,10.25,Physical Aquifer Management,142.8813324
CE Caatinga BS,South America,Brasil,-8.803995,-39.959114,Maximize Natural Storage,101.4586639
City of Kerrville,North America,USA,30.045765,-99.142412,Maximize Natural Storage,241.4633331
Kalwakole,Asia,India,17.12105,78.358502,Physical Aquifer Management,256.7446594
Hainburg,Europe,Austria,48.12,16.94,no data,316.5213318
Karanampettai,Asia,India,11.017903,77.185017,Maximize Natural Storage,487.2166748
Maribor,Europe,Slovenia,46.5567,15.646,Maximize Natural Storage,632.2719727
N/A,Asia,China,39.725872,102.620827,Physical Aquifer Management,21.09066582
Ocotillo ASR Facility,North America,USA,33.256422,-111.89217,no data,42.06733322
"President Estate , New Delhi",Asia,India,28.616437,77.197286,no data,261.2086792
Mount Gambier,Oceania,Australia,-37.8263533,140.7788041,no data,59.54000092
Kraemer Basin,North America,USA,33.861014,-117.856654,no data,60.72733307
Borsodszirak,Europe,Hungary,48.261,20.768,no data,354.1593323
San Jacinto recharge site,North America,USA,33.771743,-116.922753,Physical Aquifer Management,59.77133179
Paleshwaram,Asia,India,13.322428,80.044002,Physical Aquifer Management,311.1099854
Rosenau,Europe,Austria,47.99288,14.378554,no data,527.7866821
Wang He Cun,Asia,China,36.860907,117.148194,Physical Aquifer Management,182.8006592
Long Wan Dian,Asia,China,35.62375,116.849918,Maximize Natural Storage,301.4266663
Aquífero Cauê – Área de influência Capanema,South America,Brasil,-7.77,-64.5,Maximize Natural Storage,923.3813477
La Jolla Basin,North America,USA,33.860794,-117.869659,no data,60.72733307
Warner Basin System,North America,USA,33.854693,-117.830223,no data,59.77133179
Evesham Township MUA,North America,USA,39.852528,-74.879292,no data,639.166687
Peck Road Spreading Basin,North America,USA,34.099041,-118.016982,Physical Aquifer Management,60.72733307
Lakehaven Utility District,North America,USA,47.318059,-122.335041,Maximize Natural Storage,1097.702026
Saham,Asia,Oman,24.210171,56.731968,Physical Aquifer Management,-16.52066612
Miremont,Europe,France,45.89872312,2.716676426,Water Quality Management,395.9766541
Engineering Design & Research Institute,Asia,China,39.925043,116.301297,Maximize Natural Storage,81.98867035
"Al Hamra, Wadi Ghul",Asia,Oman,23.139653,57.235907,Physical Aquifer Management,-16.52066612
Kiindu Dam 3,Africa,Kenia,-1.46194,38.00394,Maximize Natural Storage,75.82333374
Bacia 2: Rod. Geraldo Silva Nascimento – Instituto Federal Goiano,South America,Brasil,-17.5019,-48.2269,Physical Aquifer Management,584.2266846
Angas – Bremer,Oceania,Australia,-35.3001429,139.0649091,Physical Aquifer Management,12.48933315
Curral Queimado,South America,Brasil,-6.37308,-37.21417,Maximize Natural Storage,275.5066528
Fazenda Asa Branca-comunidade Barreiro,South America,Brasil,-24.0446051,-48.91742,Maximize Natural Storage,503.1633301
Mekhtan Dam,Africa,Yemen,15.38153,44.331205,Physical Aquifer Management,83.49333191
MVWD ASR Program,North America,USA,34.12637,-117.682045,Maximize Natural Storage,59.77133179
Shriram School,Asia,India,28.564685,77.153755,Maximize Natural Storage,261.2086792
Mitchell River,Oceania,Australia,-37.7794543,147.3707958,Maximize Natural Storage,235.6719971
Ben Lomond Spreading Grounds,North America,USA,34.105117,-117.882746,Physical Aquifer Management,60.72733307
Vauvert,Europe,France,43.69291499,4.276675945,Water Quality Management,300.8553467
Ixtapaluca (San Buenaventura),North America,Mexico,19.307335,-98.859231,Maximize Natural Storage,181.1126709
Wenyu River,Asia,China,40.13173,116.31149,Maximize Natural Storage,81.98867035
Bajestan,Asia,Iran,34.519212,58.172951,Maximize Natural Storage,79.34533691
Qian Han,Asia,China,36.397574,120.113064,Water Quality Management,200.5200043
Aquífero Cauê – Área de influência Mutuca,South America,Brasil,-7.79,-60.92,Maximize Natural Storage,852.8339844
Ciudad Juarez,North America,Mexico,31.701073,-106.455753,Ecological Benefits,36.39799881
Marco Lakes – ASR-1 CO-2428,North America,USA,26.065555,-81.69333333,Maximize Natural Storage,413.2106628
MBT Ranch Recharge Project/ Vidler Recharge Facility,North America,USA,33.557785,-113.395037,Maximize Natural Storage,23.50733376
Andrews Farm (Stebonheath Park),Oceania,Australia,-34.675922,138.665145,Ecological Benefits,12.48933315
Karany,Europe,Czech Republik,50.17,14.73,Water Quality Management,345.011322
Kaler (Tode Sagar),Asia,India,27.155505,76.224218,Maximize Natural Storage,261.2086792
Forbes Spreading Grounds,North America,USA,34.118947,-117.832627,Physical Aquifer Management,59.77133179
City of Tualatin,North America,USA,45.356024,-122.788146,Maximize Natural Storage,815.9286499
Citrus Spreading Grounds,North America,USA,34.108788,-117.893487,Physical Aquifer Management,60.72733307
Assentamento Oziel Pereira (Owner: Anilda P.dos Santos),South America,Brasil,-6.8967,-35.8009,Maximize Natural Storage,104.8533325
Comunidade Santo Agostinho (Owner: Fernando D. de Souza),South America,Brasil,-7.22381,-37.2532,Maximize Natural Storage,176.4686737
Cloudbreak,Oceania,Australia,-22.317891,119.362449,Ecological Benefits,145.067337
Chhara,Asia,India,28.696818,76.717358,Water Quality Management,261.2086792
Gabcikovo,Europe,Slovakia,47.89,17.57,Water Quality Management,207.0740051
Lavelanet-de-Comminges,Europe,France,43.25581424,1.11824784,Water Quality Management,365.2739868
Lower Tenthill Weir  (Lockyer Valley),Oceania,Australia,-27.593005,152.235815,Maximize Natural Storage,328.697998
"42 Black Horse Pike, ASR well 14 (Monroe South)",North America,USA,39.604965,-74.88514,no data,639.166687
Beijing,Asia,China,39.911143,116.32965,Maximize Natural Storage,81.98867035
Banana Basin,North America,USA,34.094449,-117.497383,no data,59.77133179
Swimming River,North America,USA,40.33223,-74.090884,Maximize Natural Storage,639.166687
Placentia Basin,North America,USA,33.857704,-117.886221,Other Benefits,60.72733307
Sun Lakes City,North America,USA,33.218165,-111.869533,Maximize Natural Storage,42.06733322
Cajamarca,South America,Peru,-7.159392,-78.531114,Ecological Benefits,152.2146606
Lange Erlen,Europe,Switzerland,47.57,7.6,Water Quality Management,583.7360229
Hunbai,Asia,China,41.828288,123.601173,Maximize Natural Storage,316.8080139
Contigny,Europe,France,46.35318524,3.304569236,no data,395.9766541
Lagoa Manoel Felipe,South America,Brasil,-5.79634,-35.20299,Physical Aquifer Management,104.8533325
Mankhal Cheruvu,Asia,India,17.165704,78.447879,Physical Aquifer Management,256.7446594
Greenspot Rd basin and recharge dams,North America,USA,34.099597,-117.118445,no data,59.77133179
Garmsar,Asia,Iran,35.26982,52.438213,no data,88.69599915
Souss - Massa,Africa,Morocco,30.4703,-8.877,Maximize Natural Storage,55.78466797
Tujunga Spreading Grounds,North America,USA,34.226479,-118.41479,Physical Aquifer Management,60.72733307
BS-2,South America,Brasil,-8.069837,-39.32563,Maximize Natural Storage,131.35466
Halstead recharge site – trench and basin,North America,USA,38.014659,-97.565488,Physical Aquifer Management,121.1046677
Huantai,Asia,China,36.980017,117.911602,Physical Aquifer Management,182.8006592
Oberwerth,Europe,Germany,50.34,7.59,Water Quality Management,474.7619934
Turner Basins,North America,USA,34.073858,-117.596712,no data,59.77133179
Emamzadeh Jaafar Artificial Recharge (EJAR) Project,Asia,Iran,30.325833,50.969885,no data,212.0753326
Ana Catchment 1,Africa,Kenia,-1.34344,37.98505,Maximize Natural Storage,75.82333374
El Paso Water Utilities 1 (EPWU),North America,USA,31.940272,-106.364521,Maximize Natural Storage,36.39799881
Olga Water Treatment Plant,North America,USA,26.72,-81.68222222,no data,413.2106628
Twin Oaks ASR – San Antonio Water System (SAWS),North America,USA,29.126093,-98.404393,Maximize Natural Storage,241.4633331
Bill Gun Dam  (Lockyer Valley),Oceania,Australia,-27.6283761,152.3785385,Maximize Natural Storage,328.697998
County Line AR,North America,USA,45.792006,-119.45561,Physical Aquifer Management,71.99533081
Brooks Street Basin,North America,USA,34.060761,-117.711076,no data,59.77133179
Loeriesfontein,Africa,South Africa,-30.953936,19.443363,no data,107.3186646
Aquarenova,Europe,France,43.120094,6.156057,Domestic,485.2466736
Hero Honda Motors,Asia,India,28.233324,76.803775,Maximize Natural Storage,261.2086792
"Mother Dairy, F&V Unit",Asia,India,28.620621,77.28724,Maximize Natural Storage,261.2086792
West Deptford,North America,USA,39.837185,-75.189861,no data,639.166687
Condomínio Residencial Alto da Boa Vista,South America,Brasil,-15.62388,-47.762485,Physical Aquifer Management,466.7260132
Broward County Office of Environmental Services 2A (BCOES2A) Water Treatment Plant ASR System,North America,USA,26.205657,-80.252403,no data,413.2106628
Callide Weir (Callide Valley),Oceania,Australia,-24.3467283,150.4731092,Maximize Natural Storage,158.9266663
Badain Jilin Samo,Asia,China,39.725872,102.620827,Maximize Natural Storage,21.09066582
Ixtapaluca,North America,Mexico,19.287398,-98.87335,Maximize Natural Storage,181.1126709
Yongchang-Jinchang,Asia,China,38.476994,102.286657,Maximize Natural Storage,21.34000015
Goleta Water District,North America,USA,34.437686,-119.854427,Physical Aquifer Management,60.72733307
Tonami (Kitsunejima) No.1-3,Asia,Japan,36.651667,136.918889,Other Benefits,1042.994629
Hunpu,Asia,China,41.717347,123.318147,Maximize Natural Storage,316.8080139
Grove Basin,North America,USA,34.016749,-117.63002,no data,59.77133179
Lower Day Basin,North America,USA,34.132022,-117.543524,no data,59.77133179
Manzanares,South America,Chile,-36.35599726,-72.50955319,Ecological Benefits,505.7000122
Kitui District,Africa,Kenia,-1.46194,38.00394,Maximize Natural Storage,75.82333374
Kingfisher,Oceania,Australia,-34.810455,138.695693,Ecological Benefits,12.48933315
Shram sakthi Bhawan (Ministry of Labour and Employment),Asia,India,28.618466,77.212059,no data,261.2086792
Clarendon Weir  (Lockyer Valley),Oceania,Australia,-27.526693,152.374924,Maximize Natural Storage,328.697998
Sítio Parque Nossa Senhora da Piedade,South America,Brasil,-19.84793,-43.92618,Physical Aquifer Management,408.0066528
Hieroglyphic Mountains Recharge Project (HMRP),North America,USA,33.759517,-112.425473,Maximize Natural Storage,21.87199974
Longhe,Asia,China,34.669067,112.479196,Physical Aquifer Management,147.5053406
N/A,Asia,China,35.213283,107.349539,Maximize Natural Storage,117.6320038
Tualatin Valley Water District,North America,USA,45.462151,-122.892836,Maximize Natural Storage,815.9286499
Fanshan,Asia,China,39.703593,116.158776,Maximize Natural Storage,81.98867035
Barra de Maniçoba,South America,Brasil,-6.32229,-37.22113,Maximize Natural Storage,275.5066528
Halstead recharge site – well,North America,USA,38.014659,-97.565488,Physical Aquifer Management,121.1046677
Valle Aconcagua,South America,Chile,-32.7823009,-70.6865124,Maximize Natural Storage,309.2426758
Floreat,Oceania,Australia,-31.9503107,115.7880828,Water Quality Management,135.9806671
JNU – IIT - Sanjay Van Project - Sanjay Van,Asia,India,28.530088,77.173517,Physical Aquifer Management,261.2086792
Haidian,Asia,China,39.918853,116.214405,Maximize Natural Storage,81.98867035
Johnson Aquifer Recharge Site,North America,USA,45.95698,-118.439909,Physical Aquifer Management,71.99533081
Assentamento Pedro Henrique (Owner: Francisco Lira dos Santos,South America,Brasil,-6.7856,-35.7607,Maximize Natural Storage,104.8533325
Jardim Atlântico,South America,Brasil,-16.7265,-49.2953,Physical Aquifer Management,600.640686
Lobau,Europe,Austria,48.174,16.5,Management of Water Distribution Systems,527.7866821
Victoria Basin,North America,USA,34.129886,-117.50619,no data,59.77133179
EMBRAPA – Campo experimental da Caatinga BS-1,South America,Brasil,-9.069175,-40.328099,Maximize Natural Storage,101.4586639
Lagoa de Alagamar,South America,Brasil,-5.883129,-35.17535,Physical Aquifer Management,104.8533325
Ulfiswiese,Europe,Austria,47.257,11.344,Water Quality Management,839.7553101
Oregonian Bldg. - 3E1,North America,USA,45.514848,-122.681874,Other Benefits,815.9286499
Harkins Slough MAR pond,North America,USA,36.888578,-121.817963,Physical Aquifer Management,99.03399658
Lagoa de Infiltração Mirassol,South America,Brasil,-5.844457,-35.204664,Physical Aquifer Management,104.8533325
Veerdam,Europe,Netherlands,51.82423,4.683201,Water Quality Management,477.6199951
Maligampattu Odai,Asia,India,11.735055,79.52805,Physical Aquifer Management,477.8033447
Santa Fe Spreading Grounds,North America,USA,34.120986,-117.954246,Physical Aquifer Management,60.72733307
Sítio Almeida,South America,Brasil,-7.15178,-35.847647,Maximize Natural Storage,176.4686737
Koppanymonostor,Europe,Hungary,47.75271,18.06084,Water Quality Management,285.5499878
Fred Hervey Water Reclamation Plant,North America,USA,31.944596,-106.364348,Physical Aquifer Management,36.39799881
Comunidade Mandacácio,South America,Brasil,-8.069863,-39.328154,Maximize Natural Storage,131.35466
"Balichuang, Beijing",Asia,China,39.924655,116.300799,Maximize Natural Storage,81.98867035
Madam,Asia,India,12.38472,79.60173,no data,320.4493408
Winkler Avenue,North America,USA,26.602222,-81.881388,no data,413.2106628
Manshad,Asia,Iran,31.605405,54.333416,Maximize Natural Storage,60.32466507
Urfahr,Europe,Austria,48.307,14.286,Water Quality Management,527.7866821
Tonopah Desert Recharge Project (TDRP),North America,USA,33.555862,-112.984259,Maximize Natural Storage,21.87199974
Wynn Vale Dam,Oceania,Australia,-34.799446,138.699468,Ecological Benefits,12.48933315
"National Bank of Washington, Villa Plaza Branch – 2D1,3",North America,USA,47.163249,-122.514397,Other Benefits,1097.702026
Tanglabidly,Asia,Iran,31.49373,54.435217,Maximize Natural Storage,60.32466507
"Mannheim ASR Project, Region of Waterloo",North America,Canada,43.401755,-80.531282,Management of Water Distribution Systems,424.4119873
Sucre,South America,Bolivia,-19.05245,-65.245929,Ecological Benefits,94.03800201
Frankfurter WW2 + WW5 + WW7,Europe,Germany,50.097267,8.560689,Maximize Natural Storage,374.0473328
Shanghai,Asia,China,31.242089,121.458065,Physical Aquifer Management,399.7593384
Hawks Prairie Reclaimed Water Satellite,North America,USA,47.07446,-122.765124,Maximize Natural Storage,1097.702026
Cluj,Europe,Romania,46.7475,23.4908,Water Quality Management,304.8753357
Szentendre Island,Europe,Hungary,47.738,19.092,Water Quality Management,285.5499878
Arcade,Europe,Italy,45.7807,12.2195,Maximize Natural Storage,736.9260254
Nagybajcs-szegoye,Europe,Hungary,47.69636,17.64816,Water Quality Management,316.5213318
Buena Vista Spreading Basin,North America,USA,34.122795,-117.983233,Physical Aquifer Management,60.72733307
Sohar Dam,Asia,Oman,24.264643,56.73214,Physical Aquifer Management,-16.52066612
"BPCL Housing Complex, Sector 56",Asia,India,28.599887,77.342803,Maximize Natural Storage,261.2086792
Campina de Faro,Europe,Portugal,37.042,-7.915,Maximize Natural Storage,195.9100037
Little Dalton Spreading Grounds,North America,USA,34.152551,-117.841742,Physical Aquifer Management,59.77133179
Akola region,Asia,India,20.701167,77.002079,Maximize Natural Storage,441.8726807
Herten,Europe,Netherlands,51.181,5.962,Maximize Natural Storage,477.6199951
Rio Hondo Coastal Spreading Grounds,North America,USA,33.988642,-118.110145,Physical Aquifer Management,60.72733307
Sítio Olho D'água dos Brandões,South America,Brasil,-6.2118,-36.41419,Maximize Natural Storage,275.5066528
Cottesloe Peninsula Groundwater Restoration Project,Oceania,Australia,-31.9989621,115.7595079,Physical Aquifer Management,135.9806671
Distrito Curral Velho,South America,Brasil,-6.23119,-38.00017,Maximize Natural Storage,275.5066528
Livermore,North America,USA,37.685006,-121.764091,no data,99.03399658
Sítio Maniçoba,South America,Brasil,-7.915354,-40.08788,Maximize Natural Storage,168.0966644
Pitombeira,South America,Brasil,-6.45574,-37.24519,Maximize Natural Storage,275.5066528
Zanjan plain,Asia,Iran,36.67929,48.479061,Maximize Natural Storage,189.1239929
Moorestown,North America,USA,39.970395,-74.949786,no data,639.166687
Micron Technologies,North America,USA,43.528501,-116.149497,Other Benefits,81.44599915
Wala reservoir,Europe,Jordan,31.56806,35.80444,Physical Aquifer Management,98.16333008
Hunan,Asia,China,41.758712,123.506436,Maximize Natural Storage,316.8080139
Wadi Al Jizzi,Asia,Oman,24.312339,56.516248,Physical Aquifer Management,-16.52066612
1211 Shi Ji Da Dao,Asia,China,31.228822,121.528131,Physical Aquifer Management,399.7593384
Trecho do Rio Itajaí do Sul,South America,Brasil,-27.41336,-49.6054,Water Quality Management,785.4373169
Marco Lakes – Expanded – ASR 3,North America,USA,26.065555,-81.69333333,Maximize Natural Storage,413.2106628
Shijingshan,Asia,China,39.934926,116.204792,Maximize Natural Storage,81.98867035
Huantai,Asia,China,36.945175,118.101882,Physical Aquifer Management,182.8006592
"First National Bank, 1405 S.W. Morrison St. Branch3- 3R1,2",North America,USA,45.5214,-122.686471,Other Benefits,815.9286499
Linsental,Europe,Switzerland,47.468,8.758,Water Quality Management,936.0553589
Pacoima Spreading Grounds,North America,USA,34.256425,-118.448018,Physical Aquifer Management,60.72733307
Village Green/ Kensington University,Oceania,Australia,-33.918488,151.227858,Ecological Benefits,213.5206604
Jagsi-Sarfabad deep,Asia,India,29.276362,76.63632,Water Quality Management,261.2086792
Baoshan Farm,Asia,China,46.937761,130.932933,Maximize Natural Storage,188.241333
American Pipe & Construction Co.,North America,USA,45.52921,-122.664035,Other Benefits,815.9286499
Área do Laboratório de Sistemas Prediais - EEC -UFG,South America,Brasil,-16.67698,-49.241,Physical Aquifer Management,600.640686
Durango,North America,Mexico,24.0277202,-104.6531759,Maximize Natural Storage,168.3006592
Raudatain well field R-63,Asia,Kuwait,29.880411,47.72133,Physical Aquifer Management,34.03066635
San Gabriel River (San Gabriel Valley),North America,USA,33.9997,-118.070543,Physical Aquifer Management,60.72733307
Bhaonta (Beruji),Asia,India,27.333514,76.218212,Maximize Natural Storage,261.2086792
Arrowhead Ranch Water Reclamation Facility (ARWRF),North America,USA,33.668322,-112.196979,no data,21.87199974
Assentamento Pedro Henrique - BS-4 (Owner: Maria de Lourdes F. da Silva),South America,Brasil,-6.78083,-35.75722,Maximize Natural Storage,104.8533325
Al-Mazraa,Asia,Syria,33.52459,36.296725,Maximize Natural Storage,38.87133408
"Pacific Power & Light Co. - 3D5,6",North America,USA,45.518028,-122.678194,Other Benefits,815.9286499
Xi'an Nuclear Instrument Factory,Asia,China,34.222643,108.955589,Physical Aquifer Management,86.19999695
Sandy Creek Weir  (Lockyer Valley),Oceania,Australia,-27.637178,152.331268,Maximize Natural Storage,328.697998
New River-Agua Fria River Underground Storage Project (NAUSP),North America,USA,33.526209,-112.285105,Maximize Natural Storage,21.87199974
Breehei,Europe,Netherlands,51.482,6.011,Water Quality Management,477.6199951
Big Dalton Spreading Grounds,North America,USA,34.153644,-117.836233,Physical Aquifer Management,59.77133179
Lytchet Minster,Europe,United Kingdom,50.738097,-2.058591,no data,400.965332
Sand Hollow Trench,North America,USA,37.128629,-113.374203,Physical Aquifer Management,59.20199966
Ottappalam,Asia,India,10.770063,76.37837,no data,1555.430664
T Kromme Gat + De Put,Europe,Netherlands,51.827,4.822,Maximize Natural Storage,477.6199951
Sojovice,Europe,Czech Republik,50.216359,14.755827,no data,345.011322
Kissimmee River ASR system (KRARS),North America,USA,27.155194,-80.874917,Ecological Benefits,413.2106628
Shingnapur,Asia,India,20.942633,77.489684,Water Quality Management,441.8726807
Riverton Heights and Boulevard Park,North America,USA,47.497631,-122.306685,Physical Aquifer Management,1097.702026
Linkes Tumed-Banne,Asia,China,40.785557,111.863823,no data,93.09866333
Verdun-sur-Garonne,Europe,France,43.85389,1.236389,Water Quality Management,365.2739868
Shitoro,Asia,Japan,34.841013,138.1081,no data,1042.994629
Fazenda Sítio Manoel,South America,Brasil,-6.524552,-36.373584,Maximize Natural Storage,104.8533325
Oak Creek,North America,USA,42.874693,-87.92191,Maximize Natural Storage,633.1480103
Surya Vihar Appartments,Asia,India,28.517881,77.077429,Maximize Natural Storage,261.2086792
Lower Flagstone Creek Weir  (Lockyer Valley),Oceania,Australia,-27.592346,152.142102,Maximize Natural Storage,115.9300003
Atlantis Water Resource Management Scheme (AWRMS),Africa,South Africa,-33.628087,18.449092,Maximize Natural Storage,202.9900055
Kampung Jenderam Hilir – well No. 2,Asia,Malaysia,2.89234,101.720818,Water Quality Management,1169.831299
Comarca Lagunera,North America,Mexico,25.55,-103.433333,Physical Aquifer Management,80.95800018
Xian,Asia,China,34.322784,108.931544,Physical Aquifer Management,117.6320038
Westbrook Ave. ASR Site,North America,USA,34.22335,-77.833933,no data,478.1019897
Rokugo basin 2,Asia,Japan,39.416667,140.568056,Physical Aquifer Management,1042.994629
Qingfeng Farm,Asia,China,45.786947,133.072354,Maximize Natural Storage,148.1473389
United Water,North America,USA,43.576807,-116.283314,no data,81.44599915
Redmond ASR,North America,USA,47.677008,-122.10887,no data,1097.702026
Agon-Coutainville,Europe,France,49.05527778,-1.59444444,Water Quality Management,489.4086609
Springtree – City of Sunrise ASR System,North America,USA,26.1758333,-80.2611111,no data,413.2106628
Cuenca del Río Sonora,North America,Mexico,29.068506,-110.954286,Water Quality Management,54.56800079
"Federal Savings & Loan Association Building - 27G1,2",North America,USA,45.630385,-122.670789,Other Benefits,841.6246948
Valles Centrales de Oaxaca,North America,Mexico,16.964935,-96.578188,Physical Aquifer Management,721.4573364
Aquífero Cauê – Área de influência Fechos Auxiliar,South America,Brasil,-7.78,-60.9,Maximize Natural Storage,852.8339844
Mündelheim,Europe,Germany,51.369,6.688,Water Quality Management,477.6199951
"Fengtai, Peking",Asia,China,39.829667,116.248785,Physical Aquifer Management,81.98867035
Har Ki Pauri,Asia,India,29.961269,78.175776,Water Quality Management,522.0373535
Jinlang Shangquan,Asia,China,41.775012,123.440514,Other Benefits,316.8080139
Ankeny ASR,North America,USA,41.729115,-93.610611,Maximize Natural Storage,403.9719849
Kroombit Dam (Callide Valley),Oceania,Australia,-24.417232,150.772157,Maximize Natural Storage,158.9266663
La Mitidja Legros System,Africa,Algeria,36.585054,2.883073,no data,231.8580017
Oued Biskra,Africa,Algeria,34.89222222,5.7425,no data,54.51933289
Jinjiang Qu,Asia,China,30.667544,104.092139,Maximize Natural Storage,292.5939941
Lake Manatee ASR Wells,North America,USA,27.488002,-82.354684,Maximize Natural Storage,413.2106628
Sulaibyia,Asia,Kuwait,29.282019,47.799633,Maximize Natural Storage,34.03066635
Montclair Basin,North America,USA,34.087024,-117.702081,no data,59.77133179
Ohio River - Indiana–American Water Company,North America,USA,38.296766,-85.68418,no data,579.1306763
Grobbendonk,Europe,Belgium,51.2,4.7167,no data,477.6199951
Pleasanton,North America,USA,37.663808,-121.878132,no data,99.03399658
Troutman Water Treatment Facility (formerly Port Malabar),North America,USA,28.025659,-80.598938,Maximize Natural Storage,331.9326782
Fort Dix Land Application Site Infiltration Basin Project,North America,USA,39.983723,-74.613484,no data,639.166687
Dagu River,Asia,China,36.203538,120.111597,Physical Aquifer Management,200.5200043
Orangeburg ASR,North America,USA,33.489716,-80.874017,Maximize Natural Storage,335.8733215
850 Nongchang,Asia,China,45.733463,132.492276,Maximize Natural Storage,271.3760071
Perry Lakes,Oceania,Australia,-31.9437805,115.780462,Maximize Natural Storage,135.9806671
West Palm Beach WTP,North America,USA,26.71638888,-80.06361111,no data,413.2106628
river Esgueva,Europe,Spain,41.83,-4.95,no data,276.4819946
San Jerónimo Silacayoapilla,North America,Mexico,17.803086,-97.849213,Maximize Natural Storage,639.4840088
Derwent Park,Oceania,Australia,-42.830898,147.293093,Water Quality Management,492.9313354
FE-1R,Europe,Spain,40.526561,-3.72626,Management of Water Distribution Systems,258.6533203
Tea Tree Gully Golf Course,Oceania,Australia,-34.8035991,138.7293378,Ecological Benefits,12.48933315
Kiindu Dam 6,Africa,Kenia,-1.45142,37.99972,Maximize Natural Storage,75.82333374
Eland Platinum Mine,Africa,South Africa,-25.630232,27.881128,Maximize Natural Storage,142.6473389
Calleguas – Metropolitan Water District,North America,USA,34.246567,-118.832248,Maximize Natural Storage,60.72733307
N/A,Asia,China,38.850061,80.840264,Maximize Natural Storage,-8.562000275
Assentamento Pedro Henrique - BS-2 (Owner: Severino Candido de Araújo),South America,Brasil,-6.78083,-35.75722,Maximize Natural Storage,104.8533325
"AQUITOPIA, Gareh-Bygone-Plain",Asia,Iran,28.60562,53.934367,Physical Aquifer Management,136.2640076
Fish Canyon Spreading Grounds,North America,USA,34.155909,-117.922022,Physical Aquifer Management,60.72733307
Saticoy,North America,USA,34.279271,-119.142216,no data,60.72733307
Adam's ASR test site,North America,Canada,52.276007,-106.70293,Water Quality Management,101.7020035
Croissy-sur-Seine,Europe,France,48.87968,2.142506,Water Quality Management,353.5666809
Santa Clara County Water District,North America,USA,37.322411,-121.863073,no data,99.03399658
Carmona,Europe,Spain,37.26,-5.98,no data,233.0533295
Irwindale Spreading Grounds/ Manning Pit,North America,USA,34.098292,-117.932957,Physical Aquifer Management,60.72733307
Lagoa da Petrobrás,South America,Brasil,-5.831019,-35.227377,Physical Aquifer Management,104.8533325
Gordons Corner Well-Injection Facility,North America,USA,40.334697,-74.275669,Other Benefits,639.166687
Clackamas River Water ASR,North America,USA,45.361589,-122.582873,Maximize Natural Storage,815.9286499
Ban Nong Na (Nong Kula) 2,Asia,Thailand,16.646433,99.999297,Physical Aquifer Management,495.9140015
Burdekin Delta,Oceania,Australia,-19.612734,147.4199768,Maximize Natural Storage,616.1513062
Honeywell,North America,USA,33.466335,-112.081792,no data,21.87199974
Lagoa do Makro,South America,Brasil,-5.86292,-35.2098,Physical Aquifer Management,104.8533325
Linden ponds,North America,USA,34.154521,-117.399334,no data,59.77133179
Sierra Madre Spreading Grounds,North America,USA,34.165474,-118.040127,Physical Aquifer Management,60.72733307
Hall-Wentland,North America,USA,45.999006,-118.412346,Physical Aquifer Management,71.99533081
Soreq-1,Asia,Israel,31.960645,34.765221,Water Quality Management,173.6186676
Gheraiesti,Europe,Romania,46.59933,26.90449,Water Quality Management,254.0566711
Harpers Field,Oceania,Australia,-34.774361,138.729286,Management of Water Distribution Systems,12.48933315
Youlambie Weir (Three Moon Creek),Oceania,Australia,-24.819166,151.096769,Maximize Natural Storage,156.043335
Kalateh Asad recharge project,Asia,Iran,36.404847,55.625878,Physical Aquifer Management,93.90799713
Dashin,Asia,China,39.641662,116.169693,Maximize Natural Storage,81.98867035
L-63N (Taylor Creek) ASR System,North America,USA,27.238903,-80.785901,Maximize Natural Storage,413.2106628
Andritz,Europe,Austria,47.111,15.426,Water Quality Management,316.5213318
Área do Instituto de Pesquisas Hidráulicas - UFRGS - Trincheira 2,South America,Brasil,-30.076102,-51.114595,Physical Aquifer Management,785.4373169
Direct Injection at Cabezon,North America,USA,35.269552,-106.669859,no data,36.39799881
Cania Dam (Three Moon Creek),Oceania,Australia,-24.650774,150.985074,Maximize Natural Storage,156.043335
Calvinia artificial recharge scheme,Africa,South Africa,-31.464017,19.773245,Water Quality Management,107.3186646
Xiao Zhen Cun,Asia,China,37.068383,117.694767,Maximize Natural Storage,147.5053406
San Gabriel Coastal Spreading Grounds,North America,USA,33.990456,-118.077179,Physical Aquifer Management,60.72733307
Hickory Basin,North America,USA,34.09242,-117.510832,no data,59.77133179
Echo Meadows,North America,USA,45.76608,-119.265419,Maximize Natural Storage,71.99533081
Kotwal Cheruvu,Asia,India,17.124582,78.418538,Physical Aquifer Management,256.7446594
"Ci, Handan",Asia,China,36.344002,114.225621,Water Quality Management,103.2799988
Bodenheim,Europe,Germany,49.937,8.325,Water Quality Management,346.6159973
Missouri River - Missouri–American Water Company,North America,USA,39.189814,-94.670103,no data,146.1313324
Hartfield Park,Oceania,Australia,-31.99489,115.997794,Ecological Benefits,135.9806671
Tanggeli Desert,Asia,China,37.585192,105.124609,Maximize Natural Storage,-3.420000076
Innovation Farm,Asia,China,47.365331,133.043657,Maximize Natural Storage,280.5313416
San Sevaine Flood Control Basins,North America,USA,34.143642,-117.492214,no data,59.77133179
s-Gravendeel,Europe,Netherlands,51.78053,4.617949,Water Quality Management,477.6199951
Sedgefield,Africa,South Africa,-34.021103,22.805502,Maximize Natural Storage,139.915329
Rokugo basin 1,Asia,Japan,39.418056,140.559722,Physical Aquifer Management,1042.994629
El Rio spreading grounds,North America,USA,34.2449,-119.154675,Water Quality Management,60.72733307
Chaco Central,South America,Paraguay,-22.333333,-60.0166667,Maximize Natural Storage,365.7606812
NW Umapine site,North America,USA,45.979755,-118.503538,Physical Aquifer Management,71.99533081
Moulle,Europe,France,50.79,2.17,no data,477.6199951
Tongji University,Asia,China,34.186181,111.268567,no data,147.5053406
Murray Avenue,North America,USA,39.925997,-75.026402,no data,639.166687
Departamento de Ciências Agrárias UNITAU,South America,Brasil,-7.453025,-44.7798,Physical Aquifer Management,341.7446594
Tarim Basin,Asia,China,38.850061,80.840264,Maximize Natural Storage,-8.562000275
Dinamarca,South America,Brasil,-6.4053,-37.23023,Maximize Natural Storage,275.5066528
Chang'an University,Asia,China,34.231632,108.954279,Physical Aquifer Management,86.19999695
East Trolley Lane,North America,USA,45.993053,-118.423774,Physical Aquifer Management,71.99533081
Plaine de Millegrand,Europe,France,43.20966004,2.440985933,no data,300.8553467
Na Grobli,Europe,Poland,51.1045,17.058,Water Quality Management,516.5040283
N/A,Asia,China,39.641662,116.169693,Maximize Natural Storage,81.98867035
Linkes Tumed-Banne,Asia,China,40.728667,111.515349,no data,93.09866333
"Minqin, Wuwei",Asia,China,37.909021,102.647167,Maximize Natural Storage,41.39866638
Santiago Creek: Santiago Basins - Hart Park (3),North America,USA,33.78308,-117.832347,no data,7.772666454
El Paso Water Utilities 3 (EPWU),North America,USA,31.968394,-106.424907,Maximize Natural Storage,36.39799881
Moore's Bridges Filter Plant,North America,USA,36.872589,-76.20312,no data,466.002655
Fazenda Caraíba,South America,Brasil,-11.46667,-40.2,Maximize Natural Storage,7.817333221
Grenade,Europe,France,43.77177108,1.293294114,Physical Aquifer Management,365.2739868
Chaobai River,Asia,China,40.426251,116.984759,Physical Aquifer Management,81.98867035
JNU – IIT - Sanjay Van Project – IIT Campus,Asia,India,28.544442,77.189911,no data,261.2086792
Highlands Ranch ASR Program,North America,USA,39.54179,-104.95322,Maximize Natural Storage,66.26667023
Zhengzhou,Asia,China,34.834083,113.784243,Water Quality Management,147.5053406
Belcaire,Europe,Spain,39.81,-0.21,Maximize Natural Storage,190.7906647
Kabashima,Asia,Japan,32.561744,129.783152,Maximize Natural Storage,1489.634033
Anspach AR site,North America,USA,45.945574,-118.410467,no data,71.99533081
Ana Catchment 3,Africa,Kenia,-1.36987,37.96826,Maximize Natural Storage,75.82333374
Halstead Diversion well 07143880,North America,USA,38.008083,-97.519249,Other Benefits,121.1046677
Kraljevo,Europe,Serbia and Montenegro,43.7272,20.6868,Maximize Natural Storage,242.9633331
St. George,North America,USA,37.082515,-113.567102,no data,59.20199966
Trumbull,North America,USA,45.962058,-118.428878,Physical Aquifer Management,71.99533081
Rossdale Golf Club,Oceania,Australia,-38.029713,145.1164,Maximize Natural Storage,235.6719971
Stateline Project,North America,USA,46.963543,-117.460373,Physical Aquifer Management,116.435997
N/A,Asia,China,39.703593,116.158776,Maximize Natural Storage,81.98867035
Miko,Asia,Japan,35.622109,135.838632,Physical Aquifer Management,1042.994629
Estação Elevatória da Caixa d'água,South America,Brasil,-7.193914,-34.826635,Water Quality Management,352.5693359
Cole's ASR test site 1,North America,Canada,52.143753,-106.475703,Water Quality Management,101.7020035
Iasi,Europe,Romania,47.1569,27.5903,Water Quality Management,253.5379944
Bielany,Europe,Poland,50.042,19.84,Water Quality Management,581.2173462
Kiindu Dam,Africa,Kenia,-1.449857,38.00249,Maximize Natural Storage,75.82333374
Hinds/Hekeao MAR Pilot Project,Oceania,New Zealand,-43.879261,171.61935,Maximize Natural Storage,698.1680298
Jagsi-Sarfabad shallow,Asia,India,29.276362,76.63632,Water Quality Management,261.2086792
Louise P. Moon ASR,North America,USA,41.617577,-93.833096,Maximize Natural Storage,403.9719849
Anaheim Lake,North America,USA,33.864873,-117.847346,no data,60.72733307
Sur 1,Asia,Oman,22.526575,59.459444,Physical Aquifer Management,-16.52066612
Orba,Europe,Spain,38.78,-0.08,Ecological Benefits,188.3379974
Fountain Hills,North America,USA,33.606484,-111.72893,no data,53.51599884
Olive Basin,North America,USA,33.848304,-117.841728,no data,7.772666454
Mas-Grenier,Europe,France,43.89139,1.197222,Water Quality Management,365.2739868
Badhyan,Asia,India,28.976451,75.752161,Water Quality Management,100.7853317
Locher Rd,North America,USA,46.001784,-118.474153,Physical Aquifer Management,71.99533081
Edinburgh Park North,Oceania,Australia,-34.710873,138.657301,Ecological Benefits,12.48933315
Koraro-01,Africa,Ethiopia,13.974516,39.410441,Physical Aquifer Management,537.4260254
"Clark County Public Utilities District Building- 27H1,2",North America,USA,45.629749,-122.663473,Other Benefits,841.6246948
Isfara aquifer,Asia,Uzbekistan,40.377012,70.542695,Maximize Natural Storage,251.1433258
Nallan Pillai Petral,Asia,India,12.190454,79.251187,Maximize Natural Storage,338.6839905
Modanetta D,Europe,Italy,45.698,11.523,no data,478.7139893
Donauinsel Nord,Europe,Austria,48.236,16.415,Water Quality Management,527.7866821
Grand Prairie,North America,USA,34.473909,-91.417933,Physical Aquifer Management,547.8040161
Hansen Spreading Grounds,North America,USA,34.249909,-118.394929,Physical Aquifer Management,60.72733307
Geneuille,Europe,France,47.32335,5.969782,Water Quality Management,606.5079956
Wanghe River,Asia,China,37.369913,119.953193,Physical Aquifer Management,200.5200043
Wilwood,North America,USA,38.988951,-74.817914,no data,639.166687
Wittlaerer Werth,Europe,Germany,51.297,6.738,Water Quality Management,477.6199951
Prato,Europe,Italy,43.878,11.102,Maximize Natural Storage,352.4006653
Qingyang,Asia,China,35.678951,107.670036,Physical Aquifer Management,117.6320038
City of Tigard,North America,USA,45.412624,-122.789759,Maximize Natural Storage,815.9286499
Janki Devi Memorial College,Asia,India,28.641761,77.191504,Maximize Natural Storage,261.2086792
Jinhe well field,Asia,China,34.780507,117.325604,Physical Aquifer Management,301.4266663
McMullen ASR,North America,USA,41.520364,-93.787204,Maximize Natural Storage,403.9719849
Yavne-2,Asia,Israel,31.866523,34.719292,Water Quality Management,173.6186676
Jamia Hamdard University,Asia,India,28.512625,77.248695,Maximize Natural Storage,261.2086792
McCarthy Ranch,North America,USA,45.650079,-119.412243,no data,71.99533081
Nuestra Señora de Fátima,South America,Argentina,-30.35154626,-66.32171631,Physical Aquifer Management,-12.13066673
Rolinha,South America,Brasil,-6.33115,-37.20542,Maximize Natural Storage,275.5066528
Mount Laurel,North America,USA,39.944024,-74.901285,no data,639.166687
De Rug,Europe,Netherlands,51.081,5.823,Maximize Natural Storage,477.6199951
Name,South America,Chile,-35.73548532,-72.15531208,Ecological Benefits,505.7000122
"Boxing, Binzhou",Asia,China,37.067979,118.301231,Physical Aquifer Management,182.8006592
Glenore Grove Weir  (Lockyer Valley),Oceania,Australia,-27.518374,152.405378,Maximize Natural Storage,328.697998
Hosterwitz,Europe,Germany,51.01,13.85,Management of Water Distribution Systems,489.3106689
Olive Grove (Adams Creek),Oceania,Australia,-34.717029,138.685288,Ecological Benefits,12.48933315
Oregonian Bldg. - 3E3,North America,USA,45.514848,-122.681874,Other Benefits,815.9286499
University of Jinan,Asia,China,36.630561,117.020692,Physical Aquifer Management,153.3359985
"Portland Medical Center - 34N10,11",North America,USA,45.521281,-122.68166,Other Benefits,815.9286499
Fazenda Baixa Verde,South America,Brasil,-24.0413066,-48.97499,Maximize Natural Storage,503.1633301
N/A,Asia,China,31.224633,121.479031,Maximize Natural Storage,399.7593384
Manatee Road,North America,USA,26.046285,-81.689853,no data,413.2106628
La Güeya,South America,Argentina,-29.144444,-61.839694,Water Quality Management,261.936676
Ahuja Farm,Asia,India,28.482658,77.161292,Maximize Natural Storage,261.2086792
N/A,Asia,China,36.999577,107.999626,Maximize Natural Storage,105.8813324
Manatee Southwest Water Reclamation Facility,North America,USA,27.453184,-82.624524,Maximize Natural Storage,413.2106628
Zhulong River,Asia,China,35.013485,112.784603,Physical Aquifer Management,147.5053406
Río Manzanares,South America,Colombia,11.22689836,-74.15883064,Physical Aquifer Management,434.3873291
"Velddriel, Sellik",Europe,Netherlands,51.7627,5.2955,Water Quality Management,477.6199951
AI-Amalih,Asia,Saudi Arabia,25.590003,45.585775,Physical Aquifer Management,74.47133636
Tex Corp Limited,Asia,India,28.422209,76.993908,Maximize Natural Storage,261.2086792
Omaruru Delta (OMDEL),Africa,Namibia,-21.902015,14.513527,Maximize Natural Storage,-5.501999855
Dan Region,Asia,Israel,32.071701,34.815588,Physical Aquifer Management,173.6186676
City of St Helens,North America,USA,45.857228,-122.814742,Physical Aquifer Management,841.6246948
Santo Domingo,North America,Mexico,21.567778,-100.021111,Physical Aquifer Management,143.6840057
Nadiyapattu Odai,Asia,India,11.662141,79.406449,Physical Aquifer Management,477.8033447
Vernouillet,Europe,France,48.98010354,1.973342996,Water Quality Management,353.5666809
291 Farm,Asia,China,46.940808,131.512327,Maximize Natural Storage,164.7306671
Gaocheng,Asia,China,38.012931,114.86523,Physical Aquifer Management,101.0559998
"Anxin, Baoding",Asia,China,38.952347,116.026828,Maximize Natural Storage,80.96733093
Csepel Island,Europe,Hungary,47.29413,18.94318,Water Quality Management,285.5499878
"Jinxiang, Jining",Asia,China,35.062794,116.131964,Physical Aquifer Management,301.4266663
Alice Springs SAT,Oceania,Australia,-23.766975,133.892612,Maximize Natural Storage,44.58000183
Fiveash Water Treatment Plant,North America,USA,26.178858,-80.155505,no data,413.2106628
Sant ´Alessio,Europe,Italy,43.867103,10.51575,no data,352.4006653
EMBRAPA – Campo experimental da Caatinga BS-4,South America,Brasil,-9.069863,-40.328154,Maximize Natural Storage,101.4586639
Lagoa do Preá,South America,Brasil,-5.827327,-35.20528,Physical Aquifer Management,104.8533325
Hardwald,Europe,Switzerland,47.532,7.699,Maximize Natural Storage,583.7360229
Stiller Pond,North America,USA,46.052001,-118.468283,Other Benefits,71.99533081
Polokwane,Africa,South Africa,-23.863168,29.440344,Water Quality Management,96.60133362
North Reservoir – ASR-1 LM-6210,North America,USA,26.710555,-81.8386111,no data,413.2106628
City of St Helens – 4N/1W-5R1,North America,USA,45.857228,-122.814742,Physical Aquifer Management,841.6246948
